fuente,nombre,voltaje_kv,latitud,longitud,propietario,departamento,municipio,estado,attrs_json
Subestaciones_69_kV_,Plaza España,69,14.599613172000025,-90.52288028499999,,,,,"{""FID"": 1, ""Name"": ""Plaza España"", ""V__kV_"": 69}"
Subestaciones_69_kV_,Camotan,69,14.816006684000055,-89.38115416999995,,,,,"{""FID"": 2, ""Name"": ""Camotan"", ""V__kV_"": 69}"
Subestaciones_69_kV_,Rio Dulce,69,15.688865431000062,-89.04907281699997,,,,,"{""FID"": 3, ""Name"": ""Rio Dulce"", ""V__kV_"": 69}"
Subestaciones_69_kV_,La Ruidosa,69,15.50340320200008,-88.82629262699997,,,,,"{""FID"": 4, ""Name"": ""La Ruidosa"", ""V__kV_"": 69}"
Subestaciones_69_kV_,Alicon,69,15.660097236000064,-88.55288652799999,,,,,"{""FID"": 5, ""Name"": ""Alicon"", ""V__kV_"": 69}"
Subestaciones_69_kV_,Puerto Barrios,69,15.710685958000054,-88.58711401499994,,,,,"{""FID"": 6, ""Name"": ""Puerto Barrios"", ""V__kV_"": 69}"
Subestaciones_69_kV_,Orzunil,69,14.774218953000041,-91.50538141999994,,,,,"{""FID"": 7, ""Name"": ""Orzunil"", ""V__kV_"": 69}"
Subestaciones_69_kV_,San Marcos,69,14.95879887800005,-91.78375076099998,,,,,"{""FID"": 8, ""Name"": ""San Marcos"", ""V__kV_"": 69}"
Subestaciones_69_kV_,Tejutla,69,15.108426184000049,-91.80867152799999,,,,,"{""FID"": 9, ""Name"": ""Tejutla"", ""V__kV_"": 69}"
Subestaciones_69_kV_,Marlin,69,15.265892298000043,-91.72002075499995,,,,,"{""FID"": 10, ""Name"": ""Marlin"", ""V__kV_"": 69}"
Subestaciones_69_kV_,Tacaná,69,15.198128101000064,-92.04389909099996,,,,,"{""FID"": 11, ""Name"": ""Tacaná"", ""V__kV_"": 69}"
Subestaciones_69_kV_,Ixtahuacán,69,15.407107923000067,-91.74303421899998,,,,,"{""FID"": 12, ""Name"": ""Ixtahuacán"", ""V__kV_"": 69}"
Subestaciones_69_kV_,Barillas,69,15.810885874000062,-91.33374057199995,,,,,"{""FID"": 13, ""Name"": ""Barillas"", ""V__kV_"": 69}"
Subestaciones_69_kV_,San Juan Ixcoy,69,15.609096387000017,-91.43912600199997,,,,,"{""FID"": 14, ""Name"": ""San Juan Ixcoy"", ""V__kV_"": 69}"
Subestaciones_69_kV_,Todos Santos Cuchumatán,69,15.521536734000057,-91.61371626299996,,,,,"{""FID"": 15, ""Name"": ""Todos Santos Cuchumatán"", ""V__kV_"": 69}"
Subestaciones_69_kV_,Paquix,69,15.47977704900007,-91.50649500899999,,,,,"{""FID"": 16, ""Name"": ""Paquix"", ""V__kV_"": 69}"
Subestaciones_69_kV_,Panzos 69 kV,69,15.429417226000055,-89.62345487099998,,,,,"{""FID"": 17, ""Name"": ""Panzos 69 kV"", ""V__kV_"": 69}"
Subestaciones_69_kV_,Teleman,69,15.334595567000067,-89.75059199599997,,,,,"{""FID"": 18, ""Name"": ""Teleman"", ""V__kV_"": 69}"
Subestaciones_69_kV_,La Tinta,69,15.298574000000025,-89.97495799999994,,,,,"{""FID"": 19, ""Name"": ""La Tinta"", ""V__kV_"": 69}"
Subestaciones_69_kV_,Santa Teresa,69,15.297041217000055,-90.14341991399992,,,,,"{""FID"": 20, ""Name"": ""Santa Teresa"", ""V__kV_"": 69}"
Subestaciones_69_kV_,San Julian,69,15.316815360000065,-90.32706287199994,,,,,"{""FID"": 21, ""Name"": ""San Julian"", ""V__kV_"": 69}"
Subestaciones_69_kV_,Coban,69,15.453010125000034,-90.39346187599995,,,,,"{""FID"": 22, ""Name"": ""Coban"", ""V__kV_"": 69}"
Subestaciones_69_kV_,Chisec,69,15.81864824100006,-90.29353603899993,,,,,"{""FID"": 23, ""Name"": ""Chisec"", ""V__kV_"": 69}"
Subestaciones_69_kV_,Playa Grande,69,15.978185070000048,-90.75648270399995,,,,,"{""FID"": 24, ""Name"": ""Playa Grande"", ""V__kV_"": 69}"
Subestaciones_69_kV_,Sayaxche,69,16.506135339000018,-90.17379985499997,,,,,"{""FID"": 25, ""Name"": ""Sayaxche"", ""V__kV_"": 69}"
Subestaciones_69_kV_,La Libertad I,69,16.79899199000005,-90.10071480599998,,,,,"{""FID"": 26, ""Name"": ""La Libertad I"", ""V__kV_"": 69}"
Subestaciones_69_kV_,Peten (Ixpanpajul),69,16.88015430400003,-89.81115912199992,,,,,"{""FID"": 27, ""Name"": ""Peten (Ixpanpajul)"", ""V__kV_"": 69}"
Subestaciones_69_kV_,La Libertad II,69,16.935310547000032,-90.59377556799996,,,,,"{""FID"": 28, ""Name"": ""La Libertad II"", ""V__kV_"": 69}"
Subestaciones_69_kV_,Poptun,69,16.315984311000033,-89.41284434799996,,,,,"{""FID"": 29, ""Name"": ""Poptun"", ""V__kV_"": 69}"
Subestaciones_69_kV_,Los Amates,69,15.264738889000057,-89.10283611099999,,,,,"{""FID"": 30, ""Name"": ""Los Amates"", ""V__kV_"": 69}"
Subestaciones_69_kV_,Rio Bobos,69,15.364508413000063,-88.72551501899994,,,,,"{""FID"": 31, ""Name"": ""Rio Bobos"", ""V__kV_"": 69}"
Subestaciones_69_kV_,Estor,69,15.533954736000059,-89.32232606199995,,,,,"{""FID"": 32, ""Name"": ""Estor"", ""V__kV_"": 69}"
Subestaciones_69_kV_,Los Brillantes,69,14.576735589000052,-91.62478569799998,,,,,"{""FID"": 33, ""Name"": ""Los Brillantes"", ""V__kV_"": 69}"
Subestaciones_69_kV_,Coatepeque II,69,14.70429400000006,-91.88976091699999,,,,,"{""FID"": 34, ""Name"": ""Coatepeque II"", ""V__kV_"": 69}"
Subestaciones_69_kV_,Coatepeque,69,14.702857522000052,-91.899918336,,,,,"{""FID"": 35, ""Name"": ""Coatepeque"", ""V__kV_"": 69}"
Subestaciones_69_kV_,Meléndrez,69,14.710604940000033,-92.10056368199997,,,,,"{""FID"": 36, ""Name"": ""Meléndrez"", ""V__kV_"": 69}"
Subestaciones_69_kV_,Malacatan,69,14.908451694000068,-92.06810287099995,,,,,"{""FID"": 37, ""Name"": ""Malacatan"", ""V__kV_"": 69}"
Subestaciones_69_kV_,San Rafael Pie de la Cuesta,69,14.930363889000017,-91.92726666699997,,,,,"{""FID"": 38, ""Name"": ""San Rafael Pie de la Cuesta"", ""V__kV_"": 69}"
Subestaciones_69_kV_,Zacualpa,69,15.02205367100004,-90.88957376399999,,,,,"{""FID"": 39, ""Name"": ""Zacualpa"", ""V__kV_"": 69}"
Subestaciones_69_kV_,Quiche,69,15.02602003600003,-91.15876757099994,,,,,"{""FID"": 40, ""Name"": ""Quiche"", ""V__kV_"": 69}"
Subestaciones_69_kV_,Solola,69,14.768756563000075,-91.18675148199998,,,,,"{""FID"": 41, ""Name"": ""Solola"", ""V__kV_"": 69}"
Subestaciones_69_kV_,Totonicapan,69,14.911722239000024,-91.36649380699997,,,,,"{""FID"": 42, ""Name"": ""Totonicapan"", ""V__kV_"": 69}"
Subestaciones_69_kV_,Alaska,69,14.846172944000049,-91.36298947199998,,,,,"{""FID"": 43, ""Name"": ""Alaska"", ""V__kV_"": 69}"
Subestaciones_69_kV_,Xela,69,14.847170049000056,-91.52451947899999,,,,,"{""FID"": 44, ""Name"": ""Xela"", ""V__kV_"": 69}"
Subestaciones_69_kV_,Esperanza,69,14.871964451000055,-91.54483929599996,,,,,"{""FID"": 45, ""Name"": ""Esperanza"", ""V__kV_"": 69}"
Subestaciones_69_kV_,Santa Isabel,69,13.967189663000058,-90.82422015199995,,,,,"{""FID"": 46, ""Name"": ""Santa Isabel"", ""V__kV_"": 69}"
Subestaciones_69_kV_,Genosa,69,13.959560615000042,-90.809986252,,,,,"{""FID"": 47, ""Name"": ""Genosa"", ""V__kV_"": 69}"
Subestaciones_69_kV_,Magdalena,69,14.119722592000059,-90.93078743099994,,,,,"{""FID"": 48, ""Name"": ""Magdalena"", ""V__kV_"": 69}"
Subestaciones_69_kV_,Ciasa,69,14.098339936000054,-91.01149329399998,,,,,"{""FID"": 49, ""Name"": ""Ciasa"", ""V__kV_"": 69}"
Subestaciones_69_kV_,Acacias,69,14.043181323000047,-91.11544491999996,,,,,"{""FID"": 50, ""Name"": ""Acacias"", ""V__kV_"": 69}"
Subestaciones_69_kV_,Milagro,69,14.149814108000047,-90.97033486099997,,,,,"{""FID"": 51, ""Name"": ""Milagro"", ""V__kV_"": 69}"
Subestaciones_69_kV_,Obispo,69,14.250628249000048,-90.96080416199997,,,,,"{""FID"": 52, ""Name"": ""Obispo"", ""V__kV_"": 69}"
Subestaciones_69_kV_,El Jocote,69,14.275434112000028,-90.91377617299997,,,,,"{""FID"": 53, ""Name"": ""El Jocote"", ""V__kV_"": 69}"
Subestaciones_69_kV_,Santa Lucia Cotz.,69,14.32829635500007,-90.99105067999994,,,,,"{""FID"": 54, ""Name"": ""Santa Lucia Cotz."", ""V__kV_"": 69}"
Subestaciones_69_kV_,Pantaleon,69,14.334121953000015,-90.99613084699996,,,,,"{""FID"": 55, ""Name"": ""Pantaleon"", ""V__kV_"": 69}"
Subestaciones_69_kV_,La Union,69,14.267042939000081,-91.09756591099995,,,,,"{""FID"": 56, ""Name"": ""La Union"", ""V__kV_"": 69}"
Subestaciones_69_kV_,Miriam,69,14.309837063000025,-91.04719264399994,,,,,"{""FID"": 57, ""Name"": ""Miriam"", ""V__kV_"": 69}"
Subestaciones_69_kV_,Cocales,69,14.393094347000059,-91.19410969999994,,,,,"{""FID"": 58, ""Name"": ""Cocales"", ""V__kV_"": 69}"
Subestaciones_69_kV_,La Noria,69,14.262709090000044,-91.36081264899997,,,,,"{""FID"": 59, ""Name"": ""La Noria"", ""V__kV_"": 69}"
Subestaciones_69_kV_,Chicacao,69,14.53641210700004,-91.32565722999999,,,,,"{""FID"": 60, ""Name"": ""Chicacao"", ""V__kV_"": 69}"
Subestaciones_69_kV_,San Antonio Suchitepequez,69,14.541921940000073,-91.42672727399999,,,,,"{""FID"": 61, ""Name"": ""San Antonio Suchitepequez"", ""V__kV_"": 69}"
Subestaciones_69_kV_,Tulula,69,14.50366852100006,-91.58446483699998,,,,,"{""FID"": 62, ""Name"": ""Tulula"", ""V__kV_"": 69}"
Subestaciones_69_kV_,Cuyotenango,69,14.541403557000018,-91.57745622999992,,,,,"{""FID"": 63, ""Name"": ""Cuyotenango"", ""V__kV_"": 69}"
Subestaciones_69_kV_,La Cruz,69,14.542952881000064,-91.57629005099996,,,,,"{""FID"": 64, ""Name"": ""La Cruz"", ""V__kV_"": 69}"
Subestaciones_69_kV_,Mazatenango,69,14.546380905000039,-91.50727062899995,,,,,"{""FID"": 65, ""Name"": ""Mazatenango"", ""V__kV_"": 69}"
Subestaciones_69_kV_,La Maquina,69,14.278949446000068,-91.62829096299998,,,,,"{""FID"": 66, ""Name"": ""La Maquina"", ""V__kV_"": 69}"
Subestaciones_69_kV_,Champerico,69,14.309854878000067,-91.89933626099997,,,,,"{""FID"": 67, ""Name"": ""Champerico"", ""V__kV_"": 69}"
Subestaciones_69_kV_,Santa María,69,14.719218776000039,-91.52520358199996,,,,,"{""FID"": 68, ""Name"": ""Santa María"", ""V__kV_"": 69}"
Subestaciones_69_kV_,El Recreo,69,14.650622846000035,-91.57140936999997,,,,,"{""FID"": 69, ""Name"": ""El Recreo"", ""V__kV_"": 69}"
Subestaciones_69_kV_,El Recreo II,69,14.633375849000059,-91.58475536299994,,,,,"{""FID"": 70, ""Name"": ""El Recreo II"", ""V__kV_"": 69}"
Subestaciones_69_kV_,San Felipe,69,14.621323138000028,-91.59015287599999,,,,,"{""FID"": 71, ""Name"": ""San Felipe"", ""V__kV_"": 69}"
Subestaciones_69_kV_,Irtra,69,14.597860885000046,-91.61334067599995,,,,,"{""FID"": 72, ""Name"": ""Irtra"", ""V__kV_"": 69}"
Subestaciones_69_kV_,Retalhuleu,69,14.539119203000023,-91.67303194299996,,,,,"{""FID"": 73, ""Name"": ""Retalhuleu"", ""V__kV_"": 69}"
Subestaciones_69_kV_,San Sebastian,69,14.558480480000068,-91.65103042099997,,,,,"{""FID"": 74, ""Name"": ""San Sebastian"", ""V__kV_"": 69}"
Subestaciones_69_kV_,Escuintla,69,14.263458624000059,-90.79805021699997,,,,,"{""FID"": 75, ""Name"": ""Escuintla"", ""V__kV_"": 69}"
Subestaciones_69_kV_,Escuintla 2,69,14.261975116000022,-90.79785712599994,,,,,"{""FID"": 76, ""Name"": ""Escuintla 2"", ""V__kV_"": 69}"
Subestaciones_69_kV_,Santa Ana,69,14.241969027000039,-90.84430595399992,,,,,"{""FID"": 77, ""Name"": ""Santa Ana"", ""V__kV_"": 69}"
Subestaciones_69_kV_,Santa Ana,69,14.235560239000051,-90.84388280699993,,,,,"{""FID"": 78, ""Name"": ""Santa Ana"", ""V__kV_"": 69}"
Subestaciones_69_kV_,Los Lirios,69,14.205893351000036,-90.84117300299992,,,,,"{""FID"": 79, ""Name"": ""Los Lirios"", ""V__kV_"": 69}"
Subestaciones_69_kV_,Trinidad,69,14.150199659000073,-90.84089175999998,,,,,"{""FID"": 80, ""Name"": ""Trinidad"", ""V__kV_"": 69}"
Subestaciones_69_kV_,Belem (Maniobras),69,14.134075944000072,-90.84319523899995,,,,,"{""FID"": 81, ""Name"": ""Belem (Maniobras)"", ""V__kV_"": 69}"
Subestaciones_69_kV_,Taxisco,69,13.923703333000052,-90.58490197499998,,,,,"{""FID"": 82, ""Name"": ""Taxisco"", ""V__kV_"": 69}"
Subestaciones_69_kV_,Iztapa,69,13.939034109000033,-90.72303206499998,,,,,"{""FID"": 83, ""Name"": ""Iztapa"", ""V__kV_"": 69}"
Subestaciones_69_kV_,Portuaria,69,13.931956702000017,-90.78428624399999,,,,,"{""FID"": 84, ""Name"": ""Portuaria"", ""V__kV_"": 69}"
Subestaciones_69_kV_,Puerto Quetzal,69,13.931421729000022,-90.79380818999994,,,,,"{""FID"": 85, ""Name"": ""Puerto Quetzal"", ""V__kV_"": 69}"
Subestaciones_69_kV_,Terminal de Contenedores Quetzal,69,13.931095680000062,-90.79375192499998,,,,,"{""FID"": 86, ""Name"": ""Terminal de Contenedores Quetzal"", ""V__kV_"": 69}"
Subestaciones_69_kV_,Duke,69,13.930710614000084,-90.79733301199997,,,,,"{""FID"": 87, ""Name"": ""Duke"", ""V__kV_"": 69}"
Subestaciones_69_kV_,Puerto San Jose,69,13.929938307000047,-90.81895119299998,,,,,"{""FID"": 88, ""Name"": ""Puerto San Jose"", ""V__kV_"": 69}"
Subestaciones_69_kV_,Palin TRELEC,69,14.392378987000017,-90.71193174299998,,,,,"{""FID"": 89, ""Name"": ""Palin TRELEC"", ""V__kV_"": 69}"
Subestaciones_69_kV_,El Salto,69,14.327750189000017,-90.75339852399998,,,,,"{""FID"": 90, ""Name"": ""El Salto"", ""V__kV_"": 69}"
Subestaciones_69_kV_,Santa Maria Marquez,69,14.314903663000043,-90.77727841299996,,,,,"{""FID"": 91, ""Name"": ""Santa Maria Marquez"", ""V__kV_"": 69}"
Subestaciones_69_kV_,Concepcion,69,14.331097420000056,-90.78866769899997,,,,,"{""FID"": 92, ""Name"": ""Concepcion"", ""V__kV_"": 69}"
Subestaciones_69_kV_,Palmeras,69,14.311382402000046,-90.79358268399993,,,,,"{""FID"": 93, ""Name"": ""Palmeras"", ""V__kV_"": 69}"
Subestaciones_69_kV_,Cerveceria del Sur,69,14.306337158000078,-90.79254209899995,,,,,"{""FID"": 94, ""Name"": ""Cerveceria del Sur"", ""V__kV_"": 69}"
Subestaciones_69_kV_,Almarsa,69,14.306147164000029,-90.79251615599998,,,,,"{""FID"": 95, ""Name"": ""Almarsa"", ""V__kV_"": 69}"
Subestaciones_69_kV_,Cruz de Santiago,69,14.727513717000024,-90.989844588,,,,,"{""FID"": 96, ""Name"": ""Cruz de Santiago"", ""V__kV_"": 69}"
Subestaciones_69_kV_,Patzun,69,14.650066872000016,-91.02602062899996,,,,,"{""FID"": 97, ""Name"": ""Patzun"", ""V__kV_"": 69}"
Subestaciones_69_kV_,Toliman,69,14.668022341000034,-91.10787451899996,,,,,"{""FID"": 98, ""Name"": ""Toliman"", ""V__kV_"": 69}"
Subestaciones_69_kV_,Chimaltenango,69,14.658811389000054,-90.80806971999993,,,,,"{""FID"": 99, ""Name"": ""Chimaltenango"", ""V__kV_"": 69}"
Subestaciones_69_kV_,Chacara,69,14.560175725000025,-90.71172511099995,,,,,"{""FID"": 100, ""Name"": ""Chacara"", ""V__kV_"": 69}"
Subestaciones_69_kV_,Antigua,69,14.554016786000034,-90.72739266799992,,,,,"{""FID"": 101, ""Name"": ""Antigua"", ""V__kV_"": 69}"
Subestaciones_69_kV_,San Gaspar,69,14.533215485000024,-90.72956489199998,,,,,"{""FID"": 102, ""Name"": ""San Gaspar"", ""V__kV_"": 69}"
Subestaciones_69_kV_,Naciones Unidas,69,14.513098339000056,-90.62214280999994,,,,,"{""FID"": 103, ""Name"": ""Naciones Unidas"", ""V__kV_"": 69}"
Subestaciones_69_kV_,Laguna,69,14.461970357000045,-90.58174858499996,,,,,"{""FID"": 104, ""Name"": ""Laguna"", ""V__kV_"": 69}"
Subestaciones_69_kV_,Amatitlan,69,14.486084822000059,-90.61522117599996,,,,,"{""FID"": 105, ""Name"": ""Amatitlan"", ""V__kV_"": 69}"
Subestaciones_69_kV_,El Sauce,69,14.440472447000042,-90.64810140599995,,,,,"{""FID"": 106, ""Name"": ""El Sauce"", ""V__kV_"": 69}"
Subestaciones_69_kV_,Progreso,69,14.350713866000035,-89.85315646899994,,,,,"{""FID"": 107, ""Name"": ""Progreso"", ""V__kV_"": 69}"
Subestaciones_69_kV_,Barberena,69,14.323685640000058,-90.39088933699998,,,,,"{""FID"": 108, ""Name"": ""Barberena"", ""V__kV_"": 69}"
Subestaciones_69_kV_,Los Esclavos,69,14.250922107000067,-90.29102744099998,,,,,"{""FID"": 109, ""Name"": ""Los Esclavos"", ""V__kV_"": 69}"
Subestaciones_69_kV_,Quesada,69,14.257933333000027,-90.02273611099997,,,,,"{""FID"": 110, ""Name"": ""Quesada"", ""V__kV_"": 69}"
Subestaciones_69_kV_,El Jicaro,69,14.16216707100006,-89.78413172199998,,,,,"{""FID"": 111, ""Name"": ""El Jicaro"", ""V__kV_"": 69}"
Subestaciones_69_kV_,Asunción Mita,69,14.316922459000061,-89.71415796199994,,,,,"{""FID"": 112, ""Name"": ""Asunción Mita"", ""V__kV_"": 69}"
Subestaciones_69_kV_,La Vega I,69,14.34826823100008,-90.45703506299998,,,,,"{""FID"": 113, ""Name"": ""La Vega I"", ""V__kV_"": 69}"
Subestaciones_69_kV_,La Pastoria,69,14.273793816000019,-90.43800215299996,,,,,"{""FID"": 114, ""Name"": ""La Pastoria"", ""V__kV_"": 69}"
Subestaciones_69_kV_,La Vega II,69,14.35349816800004,-90.41775104199996,,,,,"{""FID"": 115, ""Name"": ""La Vega II"", ""V__kV_"": 69}"
Subestaciones_69_kV_,Esquipulas,69,14.590146240000013,-89.35838564199997,,,,,"{""FID"": 116, ""Name"": ""Esquipulas"", ""V__kV_"": 69}"
Subestaciones_69_kV_,Quetzaltepeque,69,14.614678494000032,-89.45208034599995,,,,,"{""FID"": 117, ""Name"": ""Quetzaltepeque"", ""V__kV_"": 69}"
Subestaciones_69_kV_,Panaluya,69,15.037591871000075,-89.59188759299997,,,,,"{""FID"": 118, ""Name"": ""Panaluya"", ""V__kV_"": 69}"
Subestaciones_69_kV_,Cabañas,69,14.908183333000073,-89.91292222199996,,,,,"{""FID"": 119, ""Name"": ""Cabañas"", ""V__kV_"": 69}"
Subestaciones_69_kV_,Usumatlán,69,14.958670000000044,-89.79897999999996,,,,,"{""FID"": 120, ""Name"": ""Usumatlán"", ""V__kV_"": 69}"
Subestaciones_69_kV_,Teculutan II,69,14.997608796000069,-89.70654612099997,,,,,"{""FID"": 121, ""Name"": ""Teculutan II"", ""V__kV_"": 69}"
Subestaciones_69_kV_,Industrias del Atlantico,69,14.996809000000036,-89.70635399999999,,,,,"{""FID"": 122, ""Name"": ""Industrias del Atlantico"", ""V__kV_"": 69}"
Subestaciones_69_kV_,Santa Cruz,69,15.012689987000037,-89.68300903399994,,,,,"{""FID"": 123, ""Name"": ""Santa Cruz"", ""V__kV_"": 69}"
Subestaciones_69_kV_,Teculutan,69,15.012616047000044,-89.68302674799997,,,,,"{""FID"": 124, ""Name"": ""Teculutan"", ""V__kV_"": 69}"
Subestaciones_69_kV_,Painsa,69,15.021797222000034,-89.65475833299996,,,,,"{""FID"": 125, ""Name"": ""Painsa"", ""V__kV_"": 69}"
Subestaciones_69_kV_,Mayuelas,69,15.124415637000018,-89.38179756299996,,,,,"{""FID"": 126, ""Name"": ""Mayuelas"", ""V__kV_"": 69}"
Subestaciones_69_kV_,Santa María Cauque,69,14.658635514000004,-90.70715087499998,,,,,"{""FID"": 127, ""Name"": ""Santa María Cauque"", ""V__kV_"": 69}"
Subestaciones_69_kV_,San Lucas,69,14.600448638000044,-90.65775646799995,,,,,"{""FID"": 128, ""Name"": ""San Lucas"", ""V__kV_"": 69}"
Subestaciones_69_kV_,Salamá,69,15.105891723000065,-90.34589481799998,,,,,"{""FID"": 129, ""Name"": ""Salamá"", ""V__kV_"": 69}"
Subestaciones_69_kV_,Santa Elena,69,15.022106580000063,-90.21592361099994,,,,,"{""FID"": 130, ""Name"": ""Santa Elena"", ""V__kV_"": 69}"
Subestaciones_69_kV_,Subestacion La Mina (El Escobal),69,14.467680556000056,-90.16527777799996,,,,,"{""FID"": 131, ""Name"": ""Subestacion La Mina (El Escobal)"", ""V__kV_"": 69}"
Subestaciones_69_kV_,San Rafael (Mataquescuintla),69,14.508740727000024,-90.17806982999997,,,,,"{""FID"": 132, ""Name"": ""San Rafael (Mataquescuintla)"", ""V__kV_"": 69}"
Subestaciones_69_kV_,Jalapa,69,14.67643533600006,-90.00804932699998,,,,,"{""FID"": 133, ""Name"": ""Jalapa"", ""V__kV_"": 69}"
Subestaciones_69_kV_,Sanarate,69,14.806548685000065,-90.18763063399996,,,,,"{""FID"": 134, ""Name"": ""Sanarate"", ""V__kV_"": 69}"
Subestaciones_69_kV_,Hispacensa,69,14.805087859000018,-90.17318865399994,,,,,"{""FID"": 135, ""Name"": ""Hispacensa"", ""V__kV_"": 69}"
Subestaciones_69_kV_,El Rancho,69,14.880125029000057,-90.06049921099998,,,,,"{""FID"": 136, ""Name"": ""El Rancho"", ""V__kV_"": 69}"
Subestaciones_69_kV_,Augusto Palma,69,14.677963882000014,-90.46165171299998,,,,,"{""FID"": 137, ""Name"": ""Augusto Palma"", ""V__kV_"": 69}"
Subestaciones_69_kV_,Incinate,69,14.669506170000034,-90.47139078399994,,,,,"{""FID"": 138, ""Name"": ""Incinate"", ""V__kV_"": 69}"
Subestaciones_69_kV_,Luis Nimatuj,69,14.686636292000067,-90.49099199199998,,,,,"{""FID"": 139, ""Name"": ""Luis Nimatuj"", ""V__kV_"": 69}"
Subestaciones_69_kV_,Novella 2,69,14.667037960000068,-90.49790314499995,,,,,"{""FID"": 140, ""Name"": ""Novella 2"", ""V__kV_"": 69}"
Subestaciones_69_kV_,Norte,69,14.664139502000058,-90.50289795099995,,,,,"{""FID"": 141, ""Name"": ""Norte"", ""V__kV_"": 69}"
Subestaciones_69_kV_,Zapote,69,14.655854615000065,-90.514807121,,,,,"{""FID"": 142, ""Name"": ""Zapote"", ""V__kV_"": 69}"
Subestaciones_69_kV_,Incienso,69,14.648771992000023,-90.53007683099997,,,,,"{""FID"": 143, ""Name"": ""Incienso"", ""V__kV_"": 69}"
Subestaciones_69_kV_,El Naranjo,69,14.648856001000054,-90.54032079099996,,,,,"{""FID"": 144, ""Name"": ""El Naranjo"", ""V__kV_"": 69}"
Subestaciones_69_kV_,Kaminal,69,14.623751371000028,-90.55572934399999,,,,,"{""FID"": 145, ""Name"": ""Kaminal"", ""V__kV_"": 69}"
Subestaciones_69_kV_,Roosevelt,69,14.636110381000037,-90.57158575499996,,,,,"{""FID"": 146, ""Name"": ""Roosevelt"", ""V__kV_"": 69}"
Subestaciones_69_kV_,Minerva,69,14.67357134200006,-90.54661780599997,,,,,"{""FID"": 147, ""Name"": ""Minerva"", ""V__kV_"": 69}"
Subestaciones_69_kV_,Montserrat,69,14.654243777000032,-90.56923055199996,,,,,"{""FID"": 148, ""Name"": ""Montserrat"", ""V__kV_"": 69}"
Subestaciones_69_kV_,Ciudad Quetzal,69,14.69481885300008,-90.57026728999995,,,,,"{""FID"": 149, ""Name"": ""Ciudad Quetzal"", ""V__kV_"": 69}"
Subestaciones_69_kV_,Carolingia,69,14.673269400000033,-90.58300125899996,,,,,"{""FID"": 150, ""Name"": ""Carolingia"", ""V__kV_"": 69}"
Subestaciones_69_kV_,Las Flores,69,14.657725569000027,-90.60613520999999,,,,,"{""FID"": 151, ""Name"": ""Las Flores"", ""V__kV_"": 69}"
Subestaciones_69_kV_,Tinco,69,14.63852841700003,-90.60050792599998,,,,,"{""FID"": 152, ""Name"": ""Tinco"", ""V__kV_"": 69}"
Subestaciones_69_kV_,Mixco,69,14.628529758000061,-90.60097060899993,,,,,"{""FID"": 153, ""Name"": ""Mixco"", ""V__kV_"": 69}"
Subestaciones_69_kV_,San Juan Sacatepequez,69,14.724398277000027,-90.64169809499998,,,,,"{""FID"": 154, ""Name"": ""San Juan Sacatepequez"", ""V__kV_"": 69}"
Subestaciones_69_kV_,Guatemala Norte,69,14.669230654000042,-90.45381089999994,,,,,"{""FID"": 155, ""Name"": ""Guatemala Norte"", ""V__kV_"": 69}"
Subestaciones_69_kV_,Montecristo,69,14.554878182000026,-90.40261915599996,,,,,"{""FID"": 156, ""Name"": ""Montecristo"", ""V__kV_"": 69}"
Subestaciones_69_kV_,Rodriguez Briones,69,14.558325074000035,-90.45771285599994,,,,,"{""FID"": 157, ""Name"": ""Rodriguez Briones"", ""V__kV_"": 69}"
Subestaciones_69_kV_,San Isidro,69,14.602190658000039,-90.46662207999998,,,,,"{""FID"": 158, ""Name"": ""San Isidro"", ""V__kV_"": 69}"
Subestaciones_69_kV_,Proceres,69,14.590798338000074,-90.50704043899998,,,,,"{""FID"": 159, ""Name"": ""Proceres"", ""V__kV_"": 69}"
Subestaciones_69_kV_,Ciudad Vieja,69,14.607134040000066,-90.51097526399997,,,,,"{""FID"": 160, ""Name"": ""Ciudad Vieja"", ""V__kV_"": 69}"
Subestaciones_69_kV_,Aurora,69,14.59408012600005,-90.54026017599995,,,,,"{""FID"": 161, ""Name"": ""Aurora"", ""V__kV_"": 69}"
Subestaciones_69_kV_,San Cristobal,69,14.596417835000066,-90.58555000999996,,,,,"{""FID"": 162, ""Name"": ""San Cristobal"", ""V__kV_"": 69}"
Subestaciones_69_kV_,Centro,69,14.600505671000063,-90.56576348599998,,,,,"{""FID"": 163, ""Name"": ""Centro"", ""V__kV_"": 69}"
Subestaciones_69_kV_,Papi Strachan,69,14.600681427000028,-90.56187220899994,,,,,"{""FID"": 164, ""Name"": ""Papi Strachan"", ""V__kV_"": 69}"
Subestaciones_69_kV_,Guarda,69,14.610214213000056,-90.53932336999996,,,,,"{""FID"": 165, ""Name"": ""Guarda"", ""V__kV_"": 69}"
Subestaciones_69_kV_,Pamplona,69,14.609595868000035,-90.53058518599994,,,,,"{""FID"": 166, ""Name"": ""Pamplona"", ""V__kV_"": 69}"
Subestaciones_69_kV_,Castellana,69,14.618020763000057,-90.52368187299999,,,,,"{""FID"": 167, ""Name"": ""Castellana"", ""V__kV_"": 69}"
Subestaciones_69_kV_,El Sitio,69,14.632042606000029,-90.52637754599995,,,,,"{""FID"": 168, ""Name"": ""El Sitio"", ""V__kV_"": 69}"
Subestaciones_69_kV_,San Juan de Dios,69,14.64061739200002,-90.52163291099998,,,,,"{""FID"": 169, ""Name"": ""San Juan de Dios"", ""V__kV_"": 69}"
Subestaciones_69_kV_,Gerona,69,14.63382261800006,-90.50587548799996,,,,,"{""FID"": 170, ""Name"": ""Gerona"", ""V__kV_"": 69}"
Subestaciones_69_kV_,La Paz,69,14.628628901000075,-90.48624962099996,,,,,"{""FID"": 171, ""Name"": ""La Paz"", ""V__kV_"": 69}"
Subestaciones_69_kV_,Carlos Dorion,69,14.644610300000059,-90.48232836899994,,,,,"{""FID"": 172, ""Name"": ""Carlos Dorion"", ""V__kV_"": 69}"
Subestaciones_69_kV_,Hector Flores,69,14.658974728000016,-90.44220377399995,,,,,"{""FID"": 173, ""Name"": ""Hector Flores"", ""V__kV_"": 69}"
Subestaciones_69_kV_,Llano Largo,69,14.68617509000006,-90.39900210399998,,,,,"{""FID"": 174, ""Name"": ""Llano Largo"", ""V__kV_"": 69}"
Subestaciones_69_kV_,Guatemala Este,69,14.538559033000062,-90.47119048099997,,,,,"{""FID"": 175, ""Name"": ""Guatemala Este"", ""V__kV_"": 69}"
Subestaciones_69_kV_,Imperialtex,69,14.540981295000057,-90.59277475799996,,,,,"{""FID"": 176, ""Name"": ""Imperialtex"", ""V__kV_"": 69}"
Subestaciones_69_kV_,Barcenas,69,14.536901171000052,-90.59791203099996,,,,,"{""FID"": 177, ""Name"": ""Barcenas"", ""V__kV_"": 69}"
Subestaciones_69_kV_,Villa Nueva,69,14.528188706000035,-90.59415812499998,,,,,"{""FID"": 178, ""Name"": ""Villa Nueva"", ""V__kV_"": 69}"
Subestaciones_69_kV_,Mayan Golf,69,14.501647679000016,-90.58332220999995,,,,,"{""FID"": 179, ""Name"": ""Mayan Golf"", ""V__kV_"": 69}"
Subestaciones_69_kV_,San Miguel Petapa,69,14.51214224000006,-90.55798945299995,,,,,"{""FID"": 180, ""Name"": ""San Miguel Petapa"", ""V__kV_"": 69}"
Subestaciones_69_kV_,Alamo,69,14.511898232000014,-90.53694429199999,,,,,"{""FID"": 181, ""Name"": ""Alamo"", ""V__kV_"": 69}"
Subestaciones_69_kV_,Villa Lobos,69,14.562048035000036,-90.56968765099998,,,,,"{""FID"": 182, ""Name"": ""Villa Lobos"", ""V__kV_"": 69}"
Subestaciones_69_kV_,Sector Industrial,69,14.563539935000048,-90.55290987999996,,,,,"{""FID"": 183, ""Name"": ""Sector Industrial"", ""V__kV_"": 69}"
Subestaciones_69_kV_,Petapa,69,14.563614337000049,-90.55311312399994,,,,,"{""FID"": 184, ""Name"": ""Petapa"", ""V__kV_"": 69}"
Subestaciones_69_kV_,Monte Maria,69,14.58069250700003,-90.56691959699998,,,,,"{""FID"": 185, ""Name"": ""Monte Maria"", ""V__kV_"": 69}"
Subestaciones_69_kV_,Hincapie,69,14.565831144000084,-90.52823129399997,,,,,"{""FID"": 186, ""Name"": ""Hincapie"", ""V__kV_"": 69}"
Subestaciones_69_kV_,Guadalupe,69,14.578526020000023,-90.51015990299999,,,,,"{""FID"": 187, ""Name"": ""Guadalupe"", ""V__kV_"": 69}"
Subestaciones_69_kV_,Cambray,69,14.576193219000062,-90.49102427199993,,,,,"{""FID"": 188, ""Name"": ""Cambray"", ""V__kV_"": 69}"
Subestaciones_69_kV_,Arrazola,69,14.488933652000066,-90.48333574099996,,,,,"{""FID"": 189, ""Name"": ""Arrazola"", ""V__kV_"": 69}"
Subestaciones_69_kV_,Santa Mónica,69,14.542481001000043,-90.59656138899999,,,,,"{""FID"": 190, ""Name"": ""Santa Mónica"", ""V__kV_"": 69}"
Subestaciones_69_kV_,Guatemala Sur,69,14.546278142000062,-90.58663953299998,,,,,"{""FID"": 191, ""Name"": ""Guatemala Sur"", ""V__kV_"": 69}"
Subestaciones_138_kV,Huehuetenango,138,15.332327391027434,-91.46206671700031,,,,,"{""FID"": 1, ""NAME"": ""Huehuetenango"", ""V__KV_"": 138}"
Subestaciones_138_kV,Esperanza,138,14.871951687542397,-91.54502275488679,,,,,"{""FID"": 2, ""NAME"": ""Esperanza"", ""V__KV_"": 138}"
Subestaciones_138_kV,Pologua,138,15.037659188900303,-91.5059395215187,,,,,"{""FID"": 3, ""NAME"": ""Pologua"", ""V__KV_"": 138}"
Subestaciones_138_kV,Escuintla,138,14.264682994890665,-90.79829757243033,,,,,"{""FID"": 4, ""NAME"": ""Escuintla"", ""V__KV_"": 138}"
Subestaciones_138_kV,Palin,138,14.390777146987478,-90.71063311754914,,,,,"{""FID"": 5, ""NAME"": ""Palin"", ""V__KV_"": 138}"
Subestaciones_138_kV,Jutiapa,138,14.275398381555597,-89.8916386817634,,,,,"{""FID"": 6, ""NAME"": ""Jutiapa"", ""V__KV_"": 138}"
Subestaciones_138_kV,Moyuta,138,14.136543527013947,-90.05237159365072,,,,,"{""FID"": 7, ""NAME"": ""Moyuta"", ""V__KV_"": 138}"
Subestaciones_138_kV,Pasaco,138,13.964335564140047,-90.2425624846576,,,,,"{""FID"": 8, ""NAME"": ""Pasaco"", ""V__KV_"": 138}"
Subestaciones_138_kV,Chiqimulilla,138,14.059853344154712,-90.36604672232836,,,,,"{""FID"": 9, ""NAME"": ""Chiqimulilla"", ""V__KV_"": 138}"
Subestaciones_138_kV,Guanagazapa,138,14.098494999999991,-90.595251,,,,,"{""FID"": 10, ""NAME"": ""Guanagazapa"", ""V__KV_"": 138}"
Subestaciones_138_kV,Costa Sur,138,14.17233502998653,-90.6723826780672,,,,,"{""FID"": 11, ""NAME"": ""Costa Sur"", ""V__KV_"": 138}"
Subestaciones_138_kV,Progreso,138,14.35096396551502,-89.85328445095575,,,,,"{""FID"": 12, ""NAME"": ""Progreso"", ""V__KV_"": 138}"
Subestaciones_138_kV,Rio Grande,138,14.62800641262857,-89.4798342211253,,,,,"{""FID"": 13, ""NAME"": ""Rio Grande"", ""V__KV_"": 138}"
Subestaciones_138_kV,Ipala,138,14.568834351854235,-89.58273753914693,,,,,"{""FID"": 14, ""NAME"": ""Ipala"", ""V__KV_"": 138}"
Subestaciones_138_kV,Zacapa,138,14.95940316542541,-89.54577460749275,,,,,"{""FID"": 15, ""NAME"": ""Zacapa"", ""V__KV_"": 138}"
Subestaciones_138_kV,Chiquimulilla,138,14.807594445514464,-89.53586044570335,,,,,"{""FID"": 16, ""NAME"": ""Chiquimulilla"", ""V__KV_"": 138}"
Subestaciones_138_kV,Guatemala Sur,138,14.545826379269869,-90.5867917404537,,,,,"{""FID"": 17, ""NAME"": ""Guatemala Sur"", ""V__KV_"": 138}"
Subestaciones_230_kV,Rio Dulce-Interfaz,230,15.639113687000064,-88.977223666,,,,,"{""FID"": 1, ""Name"": ""Rio Dulce-Interfaz"", ""V__kV_"": 230}"
Subestaciones_230_kV,Morales,230,15.487222146000015,-88.86629790399996,,,,,"{""FID"": 2, ""Name"": ""Morales"", ""V__kV_"": 230}"
Subestaciones_230_kV,Izabal,230,15.546413762000041,-89.30881405899999,,,,,"{""FID"": 3, ""Name"": ""Izabal"", ""V__kV_"": 230}"
Subestaciones_230_kV,Modesto Mendez,230,15.840201997000067,-89.18597925599992,,,,,"{""FID"": 4, ""Name"": ""Modesto Mendez"", ""V__kV_"": 230}"
Subestaciones_230_kV,Chiantla,230,15.349321970000057,-91.42801473399999,,,,,"{""FID"": 5, ""Name"": ""Chiantla"", ""V__kV_"": 230}"
Subestaciones_230_kV,Huehuetenango II,230,15.150858761000041,-91.53803369999996,,,,,"{""FID"": 6, ""Name"": ""Huehuetenango II"", ""V__kV_"": 230}"
Subestaciones_230_kV,Xacbal,230,15.668052614000025,-91.09574982399992,,,,,"{""FID"": 7, ""Name"": ""Xacbal"", ""V__kV_"": 230}"
Subestaciones_230_kV,Covadonga,230,15.667026334000086,-91.09411781799997,,,,,"{""FID"": 8, ""Name"": ""Covadonga"", ""V__kV_"": 230}"
Subestaciones_230_kV,Uspantán,230,15.490402683000063,-90.87154777399996,,,,,"{""FID"": 9, ""Name"": ""Uspantán"", ""V__kV_"": 230}"
Subestaciones_230_kV,Chixoy II,230,15.450979822000015,-90.62848630499997,,,,,"{""FID"": 10, ""Name"": ""Chixoy II"", ""V__kV_"": 230}"
Subestaciones_230_kV,Chixoy,230,15.494095666000083,-90.60967382099994,,,,,"{""FID"": 11, ""Name"": ""Chixoy"", ""V__kV_"": 230}"
Subestaciones_230_kV,Tac Tic,230,15.26615472200006,-90.28315606099994,,,,,"{""FID"": 12, ""Name"": ""Tac Tic"", ""V__kV_"": 230}"
Subestaciones_230_kV,Panzos 230 kV,230,15.43004406100004,-89.62457789099993,,,,,"{""FID"": 13, ""Name"": ""Panzos 230 kV"", ""V__kV_"": 230}"
Subestaciones_230_kV,Esperanza,230,14.871479090000028,-91.54396015899995,,,,,"{""FID"": 14, ""Name"": ""Esperanza"", ""V__kV_"": 230}"
Subestaciones_230_kV,Los Brillantes,230,14.577260999000027,-91.62398149499995,,,,,"{""FID"": 15, ""Name"": ""Los Brillantes"", ""V__kV_"": 230}"
Subestaciones_230_kV,Palo Gordo Maniobras,230,14.480169697000056,-91.39721888999998,,,,,"{""FID"": 16, ""Name"": ""Palo Gordo Maniobras"", ""V__kV_"": 230}"
Subestaciones_230_kV,Madre Tierra,230,14.333215268000053,-91.06989953999994,,,,,"{""FID"": 17, ""Name"": ""Madre Tierra"", ""V__kV_"": 230}"
Subestaciones_230_kV,Pantaleon,230,14.326758625000029,-90.99419429699998,,,,,"{""FID"": 18, ""Name"": ""Pantaleon"", ""V__kV_"": 230}"
Subestaciones_230_kV,La Union,230,14.268841514000028,-91.09441173899995,,,,,"{""FID"": 19, ""Name"": ""La Union"", ""V__kV_"": 230}"
Subestaciones_230_kV,Siquinalá,230,14.303979021000028,-90.93744035699996,,,,,"{""FID"": 20, ""Name"": ""Siquinalá"", ""V__kV_"": 230}"
Subestaciones_230_kV,Magdalena,230,14.11811600500004,-90.93145730999998,,,,,"{""FID"": 21, ""Name"": ""Magdalena"", ""V__kV_"": 230}"
Subestaciones_230_kV,Magdalena,230,14.120421176000036,-90.92735304599995,,,,,"{""FID"": 22, ""Name"": ""Magdalena"", ""V__kV_"": 230}"
Subestaciones_230_kV,Santa Isabel,230,13.968214148000072,-90.82436137799995,,,,,"{""FID"": 23, ""Name"": ""Santa Isabel"", ""V__kV_"": 230}"
Subestaciones_230_kV,Enron,230,13.92141068500007,-90.78400211999997,,,,,"{""FID"": 24, ""Name"": ""Enron"", ""V__kV_"": 230}"
Subestaciones_230_kV,San Jose,230,14.163911722000025,-90.78773433499998,,,,,"{""FID"": 25, ""Name"": ""San Jose"", ""V__kV_"": 230}"
Subestaciones_230_kV,Costa Linda,230,14.143643000000052,-90.78121299999998,,,,,"{""FID"": 26, ""Name"": ""Costa Linda"", ""V__kV_"": 230}"
Subestaciones_230_kV,Alborada (Escuintla),230,14.261989118000034,-90.79783477499996,,,,,"{""FID"": 27, ""Name"": ""Alborada (Escuintla)"", ""V__kV_"": 230}"
Subestaciones_230_kV,Santa Ana,230,14.244862666000078,-90.84853999099994,,,,,"{""FID"": 28, ""Name"": ""Santa Ana"", ""V__kV_"": 230}"
Subestaciones_230_kV,Pacifico,230,14.247723740000023,-90.76946256699995,,,,,"{""FID"": 29, ""Name"": ""Pacifico"", ""V__kV_"": 230}"
Subestaciones_230_kV,San Joaquin,230,14.240034000000037,-90.77588999999995,,,,,"{""FID"": 30, ""Name"": ""San Joaquin"", ""V__kV_"": 230}"
Subestaciones_230_kV,Escuintla,230,14.264359217000035,-90.79868631799997,,,,,"{""FID"": 31, ""Name"": ""Escuintla"", ""V__kV_"": 230}"
Subestaciones_230_kV,Palestina,230,14.421610721000041,-90.69839635699998,,,,,"{""FID"": 32, ""Name"": ""Palestina"", ""V__kV_"": 230}"
Subestaciones_230_kV,Moyuta,230,14.136724315000032,-90.05255974599999,,,,,"{""FID"": 33, ""Name"": ""Moyuta"", ""V__kV_"": 230}"
Subestaciones_230_kV,La Vega II,230,14.353934507000078,-90.41678630199999,,,,,"{""FID"": 34, ""Name"": ""La Vega II"", ""V__kV_"": 230}"
Subestaciones_230_kV,San Antonio El Sitio,230,14.386035976000064,-90.48144352299994,,,,,"{""FID"": 35, ""Name"": ""San Antonio El Sitio"", ""V__kV_"": 230}"
Subestaciones_230_kV,Aguacapa,230,14.19017403400005,-90.60357160399997,,,,,"{""FID"": 36, ""Name"": ""Aguacapa"", ""V__kV_"": 230}"
Subestaciones_230_kV,Panaluya,230,15.036810924000065,-89.59109432699995,,,,,"{""FID"": 37, ""Name"": ""Panaluya"", ""V__kV_"": 230}"
Subestaciones_230_kV,San Agustín,230,14.90906947700006,-90.03210560899998,,,,,"{""FID"": 38, ""Name"": ""San Agustín"", ""V__kV_"": 230}"
Subestaciones_230_kV,Las Cruces,230,14.659017067000036,-90.70207351199997,,,,,"{""FID"": 39, ""Name"": ""Las Cruces"", ""V__kV_"": 230}"
Subestaciones_230_kV,San Gabriel,230,14.737062129000027,-90.70550564499996,,,,,"{""FID"": 40, ""Name"": ""San Gabriel"", ""V__kV_"": 230}"
Subestaciones_230_kV,Guatemala Norte,230,14.66976875400008,-90.45408133399997,,,,,"{""FID"": 41, ""Name"": ""Guatemala Norte"", ""V__kV_"": 230}"
Subestaciones_230_kV,Guatemala Este,230,14.537723211000074,-90.47209630099997,,,,,"{""FID"": 42, ""Name"": ""Guatemala Este"", ""V__kV_"": 230}"
Subestaciones_230_kV,Guatemala Sur,230,14.546503302000053,-90.58792559999995,,,,,"{""FID"": 43, ""Name"": ""Guatemala Sur"", ""V__kV_"": 230}"
Subestaciones_400_kV,Los Brillantes,400,14.575717778755857,-91.62489085628327,,,,,"{""FID"": 1, ""NAME"": ""Los Brillantes"", ""V__KV_"": 400}"
SE_Act_26_2,Pronico-P,230,15.519684640000028,-89.37990044999998,,,,,"{""FID"": 1, ""Name"": ""Pronico-P"", ""FolderPath"": ""SE Act_26.kmz/SE Act_26"", ""SymbolID"": 0, ""kV"": 230}"
SE_Act_26_2,Chocolá,69,14.580951462000023,-91.42241694499994,,,,,"{""FID"": 2, ""Name"": ""Chocolá"", ""FolderPath"": ""SE Act_26.kmz/SE Act_26"", ""SymbolID"": 1, ""kV"": 69}"
SE_Act_26_2,Ocultún 2,69,17.03791709400001,-90.58175260299998,,,,,"{""FID"": 3, ""Name"": ""Ocultún 2"", ""FolderPath"": ""SE Act_26.kmz/SE Act_26"", ""SymbolID"": 1, ""kV"": 69}"
Subestaciones V8,SE-SANTA ANA,230,14.244869562141318,-90.84854457641603,,,,,"{""FID"": 1, ""OBJECTID"": 2, ""NAME"": ""SE-SANTA ANA"", ""SSEE"": ""SE-SNT_ ANA_230"", ""KML_FOLDER"": ""SSEE_Ingenios"", ""GRAN_USUAR"": "" "", ""X"": 0, ""Y"": 0, ""GRAN_USUA1"": "" "", ""PLANTA"": "" "", ""SUBESTACIO"": "" "", ""SUBESTACI1"": "" "", ""SUBESTACI"": "" "", ""KV"": 230, ""SUBES"": ""SE-SANTA ANA"", ""X1"": 0, ""Y1"": 0, ""Tipo"": ""Generador""}"
Subestaciones V8,SE-MAGDALENA,230,14.118060528376708,-90.93155960007155,,,,,"{""FID"": 2, ""OBJECTID"": 3, ""NAME"": ""SE-MAGDALENA"", ""SSEE"": ""SE-MAGDALENA230"", ""KML_FOLDER"": ""SSEE_Ingenios"", ""GRAN_USUAR"": "" "", ""X"": 0, ""Y"": 0, ""GRAN_USUA1"": "" "", ""PLANTA"": "" "", ""SUBESTACIO"": "" "", ""SUBESTACI1"": "" "", ""SUBESTACI"": "" "", ""KV"": 230, ""SUBES"": ""SE-MAGDALENA"", ""X1"": 0, ""Y1"": 0, ""Tipo"": ""Generador""}"
Subestaciones V8,SE-LA UNION,230,14.268847545878662,-91.09441679696441,,,,,"{""FID"": 3, ""OBJECTID"": 4, ""NAME"": ""SE-LA UNION"", ""SSEE"": ""SE-LA UNION230"", ""KML_FOLDER"": ""SSEE_Ingenios"", ""GRAN_USUAR"": "" "", ""X"": 0, ""Y"": 0, ""GRAN_USUA1"": "" "", ""PLANTA"": "" "", ""SUBESTACIO"": "" "", ""SUBESTACI1"": "" "", ""SUBESTACI"": "" "", ""KV"": 230, ""SUBES"": ""SE-LA UNION"", ""X1"": 0, ""Y1"": 0, ""Tipo"": ""Generador""}"
Subestaciones V8,SE-MADRE TIERRA,230,14.333223496396835,-91.06990311255814,,,,,"{""FID"": 4, ""OBJECTID"": 5, ""NAME"": ""SE-MADRE TIERRA"", ""SSEE"": ""SE-MADRE TIERRA"", ""KML_FOLDER"": ""SSEE_Ingenios"", ""GRAN_USUAR"": "" "", ""X"": 0, ""Y"": 0, ""GRAN_USUA1"": "" "", ""PLANTA"": "" "", ""SUBESTACIO"": "" "", ""SUBESTACI1"": "" "", ""SUBESTACI"": "" "", ""KV"": 230, ""SUBES"": ""SE-MADRE TIERRA"", ""X1"": 0, ""Y1"": 0, ""Tipo"": ""Generador""}"
Subestaciones V8,SE-PANTALEON,230,14.326760585423415,-90.99419861536596,,,,,"{""FID"": 5, ""OBJECTID"": 6, ""NAME"": ""SE-PANTALEON"", ""SSEE"": ""SE-PANTALEON230"", ""KML_FOLDER"": ""SSEE_Ingenios"", ""GRAN_USUAR"": "" "", ""X"": 0, ""Y"": 0, ""GRAN_USUA1"": "" "", ""PLANTA"": "" "", ""SUBESTACIO"": "" "", ""SUBESTACI1"": "" "", ""SUBESTACI"": "" "", ""KV"": 230, ""SUBES"": ""SE-PANTALEON"", ""X1"": 0, ""Y1"": 0, ""Tipo"": ""Generador""}"
Subestaciones V8,La Mariposa,69,14.58225661475099,-90.56549175337254,,,,,"{""FID"": 6, ""OBJECTID"": 1, ""NAME"": ""La Mariposa"", ""SSEE"": "" "", ""KML_FOLDER"": ""Grandes_Usuarios_Centro_Sur"", ""GRAN_USUAR"": ""Gran Usuario"", ""X"": 762299, ""Y"": 1613530000000, ""GRAN_USUA1"": ""La Mariposa"", ""PLANTA"": "" "", ""SUBESTACIO"": "" "", ""SUBESTACI1"": "" "", ""SUBESTACI"": "" "", ""KV"": 69, ""SUBES"": ""La Mariposa"", ""X1"": 0, ""Y1"": 0, ""Tipo"": ""Gran Usuario""}"
Subestaciones V8,Vigua,69,14.564847445968576,-90.54562880910423,,,,,"{""FID"": 7, ""OBJECTID"": 2, ""NAME"": ""Vigua"", ""SSEE"": "" "", ""KML_FOLDER"": ""Grandes_Usuarios_Centro_Sur"", ""GRAN_USUAR"": ""Gran Usuario"", ""X"": 764510, ""Y"": 1611630000000, ""GRAN_USUA1"": ""Vigua"", ""PLANTA"": "" "", ""SUBESTACIO"": "" "", ""SUBESTACI1"": "" "", ""SUBESTACI"": "" "", ""KV"": 69, ""SUBES"": ""Vigua"", ""X1"": 0, ""Y1"": 0, ""Tipo"": ""Gran Usuario""}"
Subestaciones V8,Casa de la Moneda,69,14.57198751801608,-90.5467741975935,,,,,"{""FID"": 8, ""OBJECTID"": 3, ""NAME"": ""Casa de la Moneda"", ""SSEE"": "" "", ""KML_FOLDER"": ""Grandes_Usuarios_Centro_Sur"", ""GRAN_USUAR"": ""Gran Usuario"", ""X"": 764329, ""Y"": 1612410000000, ""GRAN_USUA1"": ""Casa de la Moneda"", ""PLANTA"": "" "", ""SUBESTACIO"": "" "", ""SUBESTACI1"": "" "", ""SUBESTACI"": "" "", ""KV"": 69, ""SUBES"": ""Casa de la Moneda"", ""X1"": 0, ""Y1"": 0, ""Tipo"": ""Gran Usuario""}"
Subestaciones V8,Aceros Suarez,69,14.573763824282873,-90.54558575308565,,,,,"{""FID"": 9, ""OBJECTID"": 4, ""NAME"": ""Aceros Suarez"", ""SSEE"": "" "", ""KML_FOLDER"": ""Grandes_Usuarios_Centro_Sur"", ""GRAN_USUAR"": ""Gran Usuario"", ""X"": 764455, ""Y"": 1612610000000, ""GRAN_USUA1"": ""Aceros Suarez"", ""PLANTA"": "" "", ""SUBESTACIO"": "" "", ""SUBESTACI1"": "" "", ""SUBESTACI"": "" "", ""KV"": 69, ""SUBES"": ""Aceros Suarez"", ""X1"": 0, ""Y1"": 0, ""Tipo"": ""Gran Usuario""}"
Subestaciones V8,Aceros del Sur,69,14.575926111572592,-90.54416110697518,,,,,"{""FID"": 10, ""OBJECTID"": 5, ""NAME"": ""Aceros del Sur"", ""SSEE"": "" "", ""KML_FOLDER"": ""Grandes_Usuarios_Centro_Sur"", ""GRAN_USUAR"": ""Gran Usuario"", ""X"": 764606, ""Y"": 1612850000000, ""GRAN_USUA1"": ""Aceros del Sur"", ""PLANTA"": "" "", ""SUBESTACIO"": "" "", ""SUBESTACI1"": "" "", ""SUBESTACI"": "" "", ""KV"": 69, ""SUBES"": ""Aceros del Sur"", ""X1"": 0, ""Y1"": 0, ""Tipo"": ""Gran Usuario""}"
Subestaciones V8,Industria Harinera,69,14.58461219860166,-90.53940801061857,,,,,"{""FID"": 11, ""OBJECTID"": 6, ""NAME"": ""Industria Harinera"", ""SSEE"": "" "", ""KML_FOLDER"": ""Grandes_Usuarios_Centro_Sur"", ""GRAN_USUAR"": ""Gran Usuario"", ""X"": 765108, ""Y"": 1613820000000, ""GRAN_USUA1"": ""Industria Harinera"", ""PLANTA"": "" "", ""SUBESTACIO"": "" "", ""SUBESTACI1"": "" "", ""SUBESTACI"": "" "", ""KV"": 69, ""SUBES"": ""Industria Harinera"", ""X1"": 0, ""Y1"": 0, ""Tipo"": ""Gran Usuario""}"
Subestaciones V8,Aceros de Guatemala,69,14.587842765654623,-90.54077288053676,,,,,"{""FID"": 12, ""OBJECTID"": 7, ""NAME"": ""Aceros de Guatemala"", ""SSEE"": "" "", ""KML_FOLDER"": ""Grandes_Usuarios_Centro_Sur"", ""GRAN_USUAR"": ""Gran Usuario"", ""X"": 764957, ""Y"": 1614170000000, ""GRAN_USUA1"": ""Aceros de Guatemala"", ""PLANTA"": "" "", ""SUBESTACIO"": "" "", ""SUBESTACI1"": "" "", ""SUBESTACI"": "" "", ""KV"": 69, ""SUBES"": ""Aceros de Guatemala"", ""X1"": 0, ""Y1"": 0, ""Tipo"": ""Gran Usuario""}"
Subestaciones V8,Bombeo de Agua Hincapie,69,14.567525076247266,-90.52283653461417,,,,,"{""FID"": 13, ""OBJECTID"": 8, ""NAME"": ""Bombeo de Agua Hincapie"", ""SSEE"": "" "", ""KML_FOLDER"": ""Grandes_Usuarios_Centro_Sur"", ""GRAN_USUAR"": ""Gran Usuario"", ""X"": 766915, ""Y"": 1611940000000, ""GRAN_USUA1"": ""Bombeo de Agua Hincapie"", ""PLANTA"": "" "", ""SUBESTACIO"": "" "", ""SUBESTACI1"": "" "", ""SUBESTACI"": "" "", ""KV"": 69, ""SUBES"": ""Bombeo de Agua Hincapie"", ""X1"": 0, ""Y1"": 0, ""Tipo"": ""Gran Usuario""}"
Subestaciones V8,Oakland Mall,69,14.598371810237913,-90.50796386454998,,,,,"{""FID"": 14, ""OBJECTID"": 9, ""NAME"": ""Oakland Mall"", ""SSEE"": "" "", ""KML_FOLDER"": ""Grandes_Usuarios_Centro_Sur"", ""GRAN_USUAR"": ""Gran Usuario"", ""X"": 768481, ""Y"": 1615380000000, ""GRAN_USUA1"": ""Oakland Mall"", ""PLANTA"": "" "", ""SUBESTACIO"": "" "", ""SUBESTACI1"": "" "", ""SUBESTACI"": "" "", ""KV"": 69, ""SUBES"": ""Oakland Mall"", ""X1"": 0, ""Y1"": 0, ""Tipo"": ""Gran Usuario""}"
Subestaciones V8,Texcesa,69,14.544602059588293,-90.42952291388501,,,,,"{""FID"": 15, ""OBJECTID"": 10, ""NAME"": ""Texcesa"", ""SSEE"": "" "", ""KML_FOLDER"": ""Grandes_Usuarios_Centro_Sur"", ""GRAN_USUAR"": ""Gran Usuario"", ""X"": 777004, ""Y"": 1609520000000, ""GRAN_USUA1"": ""Texcesa"", ""PLANTA"": "" "", ""SUBESTACIO"": "" "", ""SUBESTACI1"": "" "", ""SUBESTACI"": "" "", ""KV"": 69, ""SUBES"": ""Texcesa"", ""X1"": 0, ""Y1"": 0, ""Tipo"": ""Gran Usuario""}"
Subestaciones V8,Olmeca,69,14.537899990904915,-90.44942805543693,,,,,"{""FID"": 16, ""OBJECTID"": 11, ""NAME"": ""Olmeca"", ""SSEE"": "" "", ""KML_FOLDER"": ""Grandes_Usuarios_Centro_Sur"", ""GRAN_USUAR"": ""Gran Usuario"", ""X"": 774866, ""Y"": 1608750000000, ""GRAN_USUA1"": ""Olmeca"", ""PLANTA"": "" "", ""SUBESTACIO"": "" "", ""SUBESTACI1"": "" "", ""SUBESTACI"": "" "", ""KV"": 69, ""SUBES"": ""Olmeca"", ""X1"": 0, ""Y1"": 0, ""Tipo"": ""Gran Usuario""}"
Subestaciones V8,Colgate,69,14.561847854562332,-90.54573975401877,,,,,"{""FID"": 17, ""OBJECTID"": 12, ""NAME"": ""Colgate"", ""SSEE"": "" "", ""KML_FOLDER"": ""Grandes_Usuarios_Centro_Sur"", ""GRAN_USUAR"": ""Gran Usuario"", ""X"": 764407, ""Y"": 1611310000000, ""GRAN_USUA1"": ""Colgate"", ""PLANTA"": "" "", ""SUBESTACIO"": "" "", ""SUBESTACI1"": "" "", ""SUBESTACI"": "" "", ""KV"": 69, ""SUBES"": ""Colgate"", ""X1"": 0, ""Y1"": 0, ""Tipo"": ""Gran Usuario""}"
Subestaciones V8,Maderas de Guatemala,69,14.553706093142068,-90.55232820525879,,,,,"{""FID"": 18, ""OBJECTID"": 13, ""NAME"": ""Maderas de Guatemala"", ""SSEE"": "" "", ""KML_FOLDER"": ""Grandes_Usuarios_Centro_Sur"", ""GRAN_USUAR"": ""Gran Usuario"", ""X"": 763752, ""Y"": 1610380000000, ""GRAN_USUA1"": ""Maderas de Guatemala"", ""PLANTA"": "" "", ""SUBESTACIO"": "" "", ""SUBESTACI1"": "" "", ""SUBESTACI"": "" "", ""KV"": 69, ""SUBES"": ""Maderas de Guatemala"", ""X1"": 0, ""Y1"": 0, ""Tipo"": ""Gran Usuario""}"
Subestaciones V8,Ojo de Agua,69,14.530701018494147,-90.55543817247543,,,,,"{""FID"": 19, ""OBJECTID"": 14, ""NAME"": ""Ojo de Agua"", ""SSEE"": "" "", ""KML_FOLDER"": ""Grandes_Usuarios_Centro_Sur"", ""GRAN_USUAR"": ""Gran Usuario"", ""X"": 763444, ""Y"": 1607830000000, ""GRAN_USUA1"": ""Ojo de Agua"", ""PLANTA"": "" "", ""SUBESTACIO"": "" "", ""SUBESTACI1"": "" "", ""SUBESTACI"": "" "", ""KV"": 69, ""SUBES"": ""Ojo de Agua"", ""X1"": 0, ""Y1"": 0, ""Tipo"": ""Gran Usuario""}"
Subestaciones V8,La Roca,69,14.662331472076142,-90.44218411433903,,,,,"{""FID"": 20, ""OBJECTID"": 15, ""NAME"": ""La Roca"", ""SSEE"": "" "", ""KML_FOLDER"": ""Grandes_Usuarios_Centro_Sur"", ""GRAN_USUAR"": ""Gran Usuario"", ""X"": 775492, ""Y"": 1622540000000, ""GRAN_USUA1"": ""La Roca"", ""PLANTA"": "" "", ""SUBESTACIO"": "" "", ""SUBESTACI1"": "" "", ""SUBESTACI"": "" "", ""KV"": 69, ""SUBES"": ""La Roca"", ""X1"": 0, ""Y1"": 0, ""Tipo"": ""Gran Usuario""}"
Subestaciones V8,Bombeo del Atlantico,69,14.672913040664264,-90.40583407804084,,,,,"{""FID"": 21, ""OBJECTID"": 16, ""NAME"": ""Bombeo del Atlantico"", ""SSEE"": "" "", ""KML_FOLDER"": ""Grandes_Usuarios_Centro_Sur"", ""GRAN_USUAR"": ""Gran Usuario"", ""X"": 779396, ""Y"": 1623750000000, ""GRAN_USUA1"": ""Bombeo del Atlantico"", ""PLANTA"": "" "", ""SUBESTACIO"": "" "", ""SUBESTACI1"": "" "", ""SUBESTACI"": "" "", ""KV"": 69, ""SUBES"": ""Bombeo del Atlantico"", ""X1"": 0, ""Y1"": 0, ""Tipo"": ""Gran Usuario""}"
Subestaciones V8,Bombeo Zapote,69,14.68250639981136,-90.51310106888454,,,,,"{""FID"": 22, ""OBJECTID"": 17, ""NAME"": ""Bombeo Zapote"", ""SSEE"": "" "", ""KML_FOLDER"": ""Grandes_Usuarios_Centro_Sur"", ""GRAN_USUAR"": ""Gran Usuario"", ""X"": 767825, ""Y"": 1624680000000, ""GRAN_USUA1"": ""Bombeo Zapote"", ""PLANTA"": "" "", ""SUBESTACIO"": "" "", ""SUBESTACI1"": "" "", ""SUBESTACI"": "" "", ""KV"": 69, ""SUBES"": ""Bombeo Zapote"", ""X1"": 0, ""Y1"": 0, ""Tipo"": ""Gran Usuario""}"
Subestaciones V8,Kerns,69,14.654402956257524,-90.46472179612738,,,,,"{""FID"": 23, ""OBJECTID"": 18, ""NAME"": ""Kerns"", ""SSEE"": "" "", ""KML_FOLDER"": ""Grandes_Usuarios_Centro_Sur"", ""GRAN_USUAR"": ""Gran Usuario"", ""X"": 773073, ""Y"": 1621630000000, ""GRAN_USUA1"": ""Kerns"", ""PLANTA"": "" "", ""SUBESTACIO"": "" "", ""SUBESTACI1"": "" "", ""SUBESTACI"": "" "", ""KV"": 69, ""SUBES"": ""Kerns"", ""X1"": 0, ""Y1"": 0, ""Tipo"": ""Gran Usuario""}"
Subestaciones V8,Hospital Militar,69,14.627328735175928,-90.46139609354863,,,,,"{""FID"": 24, ""OBJECTID"": 19, ""NAME"": ""Hospital Militar"", ""SSEE"": "" "", ""KML_FOLDER"": ""Grandes_Usuarios_Centro_Sur"", ""GRAN_USUAR"": ""Gran Usuario"", ""X"": 773465, ""Y"": 1618640000000, ""GRAN_USUA1"": ""Hospital Militar"", ""PLANTA"": "" "", ""SUBESTACIO"": "" "", ""SUBESTACI1"": "" "", ""SUBESTACI"": "" "", ""KV"": 69, ""SUBES"": ""Hospital Militar"", ""X1"": 0, ""Y1"": 0, ""Tipo"": ""Gran Usuario""}"
Subestaciones V8,Ginsa,69,14.561393103278116,-90.54790244153293,,,,,"{""FID"": 25, ""OBJECTID"": 20, ""NAME"": ""Ginsa"", ""SSEE"": "" "", ""KML_FOLDER"": ""Grandes_Usuarios_Centro_Sur"", ""GRAN_USUAR"": ""Gran Usuario"", ""X"": 764220, ""Y"": 1611240000000, ""GRAN_USUA1"": ""Ginsa"", ""PLANTA"": "" "", ""SUBESTACIO"": "" "", ""SUBESTACI1"": "" "", ""SUBESTACI"": "" "", ""KV"": 69, ""SUBES"": ""Ginsa"", ""X1"": 0, ""Y1"": 0, ""Tipo"": ""Gran Usuario""}"
Subestaciones V8,Indeta,69,14.642172006113045,-90.59935017811466,,,,,"{""FID"": 26, ""OBJECTID"": 21, ""NAME"": ""Indeta"", ""SSEE"": "" "", ""KML_FOLDER"": ""Grandes_Usuarios_Centro_Sur"", ""GRAN_USUAR"": ""Gran Usuario"", ""X"": 758579, ""Y"": 1620120000000, ""GRAN_USUA1"": ""Indeta"", ""PLANTA"": "" "", ""SUBESTACIO"": "" "", ""SUBESTACI1"": "" "", ""SUBESTACI"": "" "", ""KV"": 69, ""SUBES"": ""Indeta"", ""X1"": 0, ""Y1"": 0, ""Tipo"": ""Gran Usuario""}"
Subestaciones V8,Liztex,69,14.644259002139648,-90.59760150169285,,,,,"{""FID"": 27, ""OBJECTID"": 22, ""NAME"": ""Liztex"", ""SSEE"": "" "", ""KML_FOLDER"": ""Grandes_Usuarios_Centro_Sur"", ""GRAN_USUAR"": ""Gran Usuario"", ""X"": 758765, ""Y"": 1620350000000, ""GRAN_USUA1"": ""Liztex"", ""PLANTA"": "" "", ""SUBESTACIO"": "" "", ""SUBESTACI1"": "" "", ""SUBESTACI"": "" "", ""KV"": 69, ""SUBES"": ""Liztex"", ""X1"": 0, ""Y1"": 0, ""Tipo"": ""Gran Usuario""}"
Subestaciones V8,Koranza,69,14.636306305876339,-90.5652119360502,,,,,"{""FID"": 28, ""OBJECTID"": 23, ""NAME"": ""Koranza"", ""SSEE"": "" "", ""KML_FOLDER"": ""Grandes_Usuarios_Centro_Sur"", ""GRAN_USUAR"": ""Gran Usuario"", ""X"": 762265, ""Y"": 1619510000000, ""GRAN_USUA1"": ""Koranza"", ""PLANTA"": "" "", ""SUBESTACIO"": "" "", ""SUBESTACI1"": "" "", ""SUBESTACI"": "" "", ""KV"": 69, ""SUBES"": ""Koranza"", ""X1"": 0, ""Y1"": 0, ""Tipo"": ""Gran Usuario""}"
Subestaciones V8,Hiperpaiz,69,14.624204796935748,-90.55873927989515,,,,,"{""FID"": 29, ""OBJECTID"": 24, ""NAME"": ""Hiperpaiz"", ""SSEE"": "" "", ""KML_FOLDER"": ""Grandes_Usuarios_Centro_Sur"", ""GRAN_USUAR"": ""Gran Usuario"", ""X"": 762977, ""Y"": 1618180000000, ""GRAN_USUA1"": ""Hiperpaiz"", ""PLANTA"": "" "", ""SUBESTACIO"": "" "", ""SUBESTACI1"": "" "", ""SUBESTACI"": "" "", ""KV"": 69, ""SUBES"": ""Hiperpaiz"", ""X1"": 0, ""Y1"": 0, ""Tipo"": ""Gran Usuario""}"
Subestaciones V8,Tikal Futura,69,14.623947881215615,-90.55405661043083,,,,,"{""FID"": 30, ""OBJECTID"": 25, ""NAME"": ""Tikal Futura"", ""SSEE"": "" "", ""KML_FOLDER"": ""Grandes_Usuarios_Centro_Sur"", ""GRAN_USUAR"": ""Gran Usuario"", ""X"": 763482, ""Y"": 1618150000000, ""GRAN_USUA1"": ""Tikal Futura"", ""PLANTA"": "" "", ""SUBESTACIO"": "" "", ""SUBESTACI1"": "" "", ""SUBESTACI"": "" "", ""KV"": 69, ""SUBES"": ""Tikal Futura"", ""X1"": 0, ""Y1"": 0, ""Tipo"": ""Gran Usuario""}"
Subestaciones V8,Corfina,69,14.563579457701298,-90.7267229921091,,,,,"{""FID"": 31, ""OBJECTID"": 26, ""NAME"": ""Corfina"", ""SSEE"": "" "", ""KML_FOLDER"": ""Grandes_Usuarios_Sur"", ""GRAN_USUAR"": ""Gran Usuario"", ""X"": 744940, ""Y"": 1611280000000, ""GRAN_USUA1"": ""Corfina"", ""PLANTA"": "" "", ""SUBESTACIO"": "" "", ""SUBESTACI1"": "" "", ""SUBESTACI"": "" "", ""KV"": 69, ""SUBES"": ""Corfina"", ""X1"": 0, ""Y1"": 0, ""Tipo"": ""Gran Usuario""}"
Subestaciones V8,Nestle,69,14.5476328929457,-90.74080042914485,,,,,"{""FID"": 32, ""OBJECTID"": 27, ""NAME"": ""Nestle"", ""SSEE"": "" "", ""KML_FOLDER"": ""Grandes_Usuarios_Sur"", ""GRAN_USUAR"": ""Gran Usuario"", ""X"": 743440, ""Y"": 1609500, ""GRAN_USUA1"": ""Nestle"", ""PLANTA"": "" "", ""SUBESTACIO"": "" "", ""SUBESTACI1"": "" "", ""SUBESTACI"": "" "", ""KV"": 69, ""SUBES"": ""Nestle"", ""X1"": 0, ""Y1"": 0, ""Tipo"": ""Gran Usuario""}"
Subestaciones V8,Sacos Agricolas,69,14.533751658505155,-90.73395711823424,,,,,"{""FID"": 33, ""OBJECTID"": 28, ""NAME"": ""Sacos Agricolas"", ""SSEE"": "" "", ""KML_FOLDER"": ""Grandes_Usuarios_Sur"", ""GRAN_USUAR"": ""Gran Usuario"", ""X"": 744193, ""Y"": 1607970000000, ""GRAN_USUA1"": ""Sacos Agricolas"", ""PLANTA"": "" "", ""SUBESTACIO"": "" "", ""SUBESTACI1"": "" "", ""SUBESTACI"": "" "", ""KV"": 69, ""SUBES"": ""Sacos Agricolas"", ""X1"": 0, ""Y1"": 0, ""Tipo"": ""Gran Usuario""}"
Subestaciones V8,Samboro,69,14.52551111883641,-90.57416410375701,,,,,"{""FID"": 34, ""OBJECTID"": 29, ""NAME"": ""Samboro"", ""SSEE"": "" "", ""KML_FOLDER"": ""Grandes_Usuarios_Sur"", ""GRAN_USUAR"": ""Gran Usuario"", ""X"": 761431, ""Y"": 1607240000000, ""GRAN_USUA1"": ""Samboro"", ""PLANTA"": "" "", ""SUBESTACIO"": "" "", ""SUBESTACI1"": "" "", ""SUBESTACI"": "" "", ""KV"": 69, ""SUBES"": ""Samboro"", ""X1"": 0, ""Y1"": 0, ""Tipo"": ""Gran Usuario""}"
Subestaciones V8,Frisa,69,14.516816885741674,-90.5782373907158,,,,,"{""FID"": 35, ""OBJECTID"": 30, ""NAME"": ""Frisa"", ""SSEE"": "" "", ""KML_FOLDER"": ""Grandes_Usuarios_Sur"", ""GRAN_USUAR"": ""Gran Usuario"", ""X"": 761002, ""Y"": 1606270000000, ""GRAN_USUA1"": ""Frisa"", ""PLANTA"": "" "", ""SUBESTACIO"": "" "", ""SUBESTACI1"": "" "", ""SUBESTACI"": "" "", ""KV"": 69, ""SUBES"": ""Frisa"", ""X1"": 0, ""Y1"": 0, ""Tipo"": ""Gran Usuario""}"
Subestaciones V8,Raflas y Empaques,69,14.528366732501222,-90.59615037140611,,,,,"{""FID"": 36, ""OBJECTID"": 31, ""NAME"": ""Raflas y Empaques"", ""SSEE"": "" "", ""KML_FOLDER"": ""Grandes_Usuarios_Sur"", ""GRAN_USUAR"": ""Gran Usuario"", ""X"": 759057, ""Y"": 1607530000000, ""GRAN_USUA1"": ""Raflas y Empaques"", ""PLANTA"": "" "", ""SUBESTACIO"": "" "", ""SUBESTACI1"": "" "", ""SUBESTACI"": "" "", ""KV"": 69, ""SUBES"": ""Raflas y Empaques"", ""X1"": 0, ""Y1"": 0, ""Tipo"": ""Gran Usuario""}"
Subestaciones V8,Olefinas,69,14.529597827299456,-90.58934813152737,,,,,"{""FID"": 37, ""OBJECTID"": 32, ""NAME"": ""Olefinas"", ""SSEE"": "" "", ""KML_FOLDER"": ""Grandes_Usuarios_Sur"", ""GRAN_USUAR"": ""Gran Usuario"", ""X"": 759789, ""Y"": 1607670000000, ""GRAN_USUA1"": ""Olefinas"", ""PLANTA"": "" "", ""SUBESTACIO"": "" "", ""SUBESTACI1"": "" "", ""SUBESTACI"": "" "", ""KV"": 69, ""SUBES"": ""Olefinas"", ""X1"": 0, ""Y1"": 0, ""Tipo"": ""Gran Usuario""}"
Subestaciones V8,Polytec,69,14.537232089554275,-90.59462617386671,,,,,"{""FID"": 38, ""OBJECTID"": 33, ""NAME"": ""Polytec"", ""SSEE"": "" "", ""KML_FOLDER"": ""Grandes_Usuarios_Sur"", ""GRAN_USUAR"": ""Gran Usuario"", ""X"": 759211, ""Y"": 1608510000000, ""GRAN_USUA1"": ""Polytec"", ""PLANTA"": "" "", ""SUBESTACIO"": "" "", ""SUBESTACI1"": "" "", ""SUBESTACI"": "" "", ""KV"": 69, ""SUBES"": ""Polytec"", ""X1"": 0, ""Y1"": 0, ""Tipo"": ""Gran Usuario""}"
Subestaciones V8,Alinsa,69,14.469890402093968,-90.6394330388689,,,,,"{""FID"": 39, ""OBJECTID"": 34, ""NAME"": ""Alinsa"", ""SSEE"": "" "", ""KML_FOLDER"": ""Grandes_Usuarios_Sur"", ""GRAN_USUAR"": ""Gran Usuario"", ""X"": 754457, ""Y"": 1601010000000, ""GRAN_USUA1"": ""Alinsa"", ""PLANTA"": "" "", ""SUBESTACIO"": "" "", ""SUBESTACI1"": "" "", ""SUBESTACI"": "" "", ""KV"": 69, ""SUBES"": ""Alinsa"", ""X1"": 0, ""Y1"": 0, ""Tipo"": ""Gran Usuario""}"
Subestaciones V8,Prohinsa,69,14.47336817664816,-90.64026787791198,,,,,"{""FID"": 40, ""OBJECTID"": 35, ""NAME"": ""Prohinsa"", ""SSEE"": "" "", ""KML_FOLDER"": ""Grandes_Usuarios_Sur"", ""GRAN_USUAR"": ""Gran Usuario"", ""X"": 754363, ""Y"": 1601390000000, ""GRAN_USUA1"": ""Prohinsa"", ""PLANTA"": "" "", ""SUBESTACIO"": "" "", ""SUBESTACI1"": "" "", ""SUBESTACI"": "" "", ""KV"": 69, ""SUBES"": ""Prohinsa"", ""X1"": 0, ""Y1"": 0, ""Tipo"": ""Gran Usuario""}"
Subestaciones V8,Lagotex,69,14.464891580379303,-90.63558233427734,,,,,"{""FID"": 41, ""OBJECTID"": 36, ""NAME"": ""Lagotex"", ""SSEE"": "" "", ""KML_FOLDER"": ""Grandes_Usuarios_Sur"", ""GRAN_USUAR"": ""Gran Usuario"", ""X"": 754878, ""Y"": 1600460000000, ""GRAN_USUA1"": ""Lagotex"", ""PLANTA"": "" "", ""SUBESTACIO"": "" "", ""SUBESTACI1"": "" "", ""SUBESTACI"": "" "", ""KV"": 69, ""SUBES"": ""Lagotex"", ""X1"": 0, ""Y1"": 0, ""Tipo"": ""Gran Usuario""}"
Subestaciones V8,Youn Shin,69,14.380290423124823,-90.72793026084209,,,,,"{""FID"": 42, ""OBJECTID"": 37, ""NAME"": ""Youn Shin"", ""SSEE"": "" "", ""KML_FOLDER"": ""Gran_Usuario_Costa_Sur"", ""GRAN_USUAR"": ""Gran Usuario"", ""X"": 745011, ""Y"": 1590990000000, ""GRAN_USUA1"": ""Youn Shin"", ""PLANTA"": "" "", ""SUBESTACIO"": "" "", ""SUBESTACI1"": "" "", ""SUBESTACI"": "" "", ""KV"": 69, ""SUBES"": ""Youn Shin"", ""X1"": 0, ""Y1"": 0, ""Tipo"": ""Gran Usuario""}"
Subestaciones V8,Cerveceria del Sur,69,14.306184710019203,-90.79347580247048,,,,,"{""FID"": 43, ""OBJECTID"": 38, ""NAME"": ""Cerveceria del Sur"", ""SSEE"": "" "", ""KML_FOLDER"": ""Gran_Usuario_Costa_Sur"", ""GRAN_USUAR"": ""Gran Usuario"", ""X"": 738018, ""Y"": 1582720000000, ""GRAN_USUA1"": ""Cerveceria del Sur"", ""PLANTA"": "" "", ""SUBESTACIO"": "" "", ""SUBESTACI1"": "" "", ""SUBESTACI"": "" "", ""KV"": 69, ""SUBES"": ""Cerveceria del Sur"", ""X1"": 0, ""Y1"": 0, ""Tipo"": ""Gran Usuario""}"
Subestaciones V8,Agsa,69,14.313062561178413,-90.78200140166224,,,,,"{""FID"": 44, ""OBJECTID"": 39, ""NAME"": ""Agsa"", ""SSEE"": "" "", ""KML_FOLDER"": ""Gran_Usuario_Costa_Sur"", ""GRAN_USUAR"": ""Gran Usuario"", ""X"": 739249, ""Y"": 1583500, ""GRAN_USUA1"": ""Agsa"", ""PLANTA"": "" "", ""SUBESTACIO"": "" "", ""SUBESTACI1"": "" "", ""SUBESTACI"": "" "", ""KV"": 69, ""SUBES"": ""Agsa"", ""X1"": 0, ""Y1"": 0, ""Tipo"": ""Gran Usuario""}"
Subestaciones V8,Ciasa,69,14.098371474538883,-91.01185049999658,,,,,"{""FID"": 45, ""OBJECTID"": 40, ""NAME"": ""Ciasa"", ""SSEE"": "" "", ""KML_FOLDER"": ""Gran_Usuario_Costa_Sur"", ""GRAN_USUAR"": ""Gran Usuario"", ""X"": 714649, ""Y"": 1559510000000, ""GRAN_USUA1"": ""Ciasa"", ""PLANTA"": "" "", ""SUBESTACIO"": "" "", ""SUBESTACI1"": "" "", ""SUBESTACI"": "" "", ""KV"": 69, ""SUBES"": ""Ciasa"", ""X1"": 0, ""Y1"": 0, ""Tipo"": ""Gran Usuario""}"
Subestaciones V8,Olmeca,69,14.042473304790315,-91.12217817009666,,,,,"{""FID"": 46, ""OBJECTID"": 41, ""NAME"": ""Olmeca"", ""SSEE"": "" "", ""KML_FOLDER"": ""Gran_Usuario_Costa_Sur"", ""GRAN_USUAR"": ""Gran Usuario"", ""X"": 702783, ""Y"": 1553230000000, ""GRAN_USUA1"": ""Olmeca"", ""PLANTA"": "" "", ""SUBESTACIO"": "" "", ""SUBESTACI1"": "" "", ""SUBESTACI"": "" "", ""KV"": 69, ""SUBES"": ""Olmeca"", ""X1"": 0, ""Y1"": 0, ""Tipo"": ""Gran Usuario""}"
Subestaciones V8,La Libertad,69,14.49902678847484,-90.5798774659982,,,,,"{""FID"": 47, ""OBJECTID"": 42, ""NAME"": ""La Libertad"", ""SSEE"": "" "", ""KML_FOLDER"": ""XYHOJA1"", ""GRAN_USUAR"": ""0"", ""X"": 760846, ""Y"": 1604300, ""GRAN_USUA1"": "" "", ""PLANTA"": ""La Libertad"", ""SUBESTACIO"": "" "", ""SUBESTACI1"": "" "", ""SUBESTACI"": "" "", ""KV"": 69, ""SUBES"": ""La Libertad"", ""X1"": 0, ""Y1"": 0, ""Tipo"": ""Generador""}"
Subestaciones V8,El Salto,69,14.327751771662143,-90.75340407373758,,,,,"{""FID"": 48, ""OBJECTID"": 43, ""NAME"": ""El Salto"", ""SSEE"": "" "", ""KML_FOLDER"": ""XYHOJA1"", ""GRAN_USUAR"": ""0"", ""X"": 742328, ""Y"": 1585060000000, ""GRAN_USUA1"": "" "", ""PLANTA"": ""El Salto"", ""SUBESTACIO"": "" "", ""SUBESTACI1"": "" "", ""SUBESTACI"": "" "", ""KV"": 69, ""SUBES"": ""El Salto"", ""X1"": 0, ""Y1"": 0, ""Tipo"": ""Generador""}"
Subestaciones V8,Llano Largo,69,14.686183389682016,-90.39906067574557,,,,,"{""FID"": 49, ""OBJECTID"": 44, ""NAME"": ""Llano Largo"", ""SSEE"": "" "", ""KML_FOLDER"": ""Subestaciones_Centro_Sur"", ""GRAN_USUAR"": ""Transporte"", ""X"": 780109.03315, ""Y"": 1625230, ""GRAN_USUA1"": "" "", ""PLANTA"": "" "", ""SUBESTACIO"": ""Llano Largo"", ""SUBESTACI1"": ""Llano Largo"", ""SUBESTACI"": "" "", ""KV"": 69, ""SUBES"": ""Llano Largo"", ""X1"": 0, ""Y1"": 0, ""Tipo"": ""Transporte""}"
Subestaciones V8,Rodriguez Briones,69,14.558279421423952,-90.45778876670524,,,,,"{""FID"": 50, ""OBJECTID"": 45, ""NAME"": ""Rodriguez Briones"", ""SSEE"": "" "", ""KML_FOLDER"": ""Subestaciones_Centro_Sur"", ""GRAN_USUAR"": ""Transporte"", ""X"": 773939.31698, ""Y"": 1611000, ""GRAN_USUA1"": "" "", ""PLANTA"": "" "", ""SUBESTACIO"": ""Rodriguez Briones"", ""SUBESTACI1"": ""Rodriguez Briones"", ""SUBESTACI"": "" "", ""KV"": 69, ""SUBES"": ""Rodriguez Briones"", ""X1"": 0, ""Y1"": 0, ""Tipo"": ""Transporte""}"
Subestaciones V8,Hector Flores,69,14.658976398360798,-90.44220923603088,,,,,"{""FID"": 51, ""OBJECTID"": 46, ""NAME"": ""Hector Flores"", ""SSEE"": "" "", ""KML_FOLDER"": ""Subestaciones_Centro_Sur"", ""GRAN_USUAR"": ""Transporte"", ""X"": 775493.4919, ""Y"": 1622160, ""GRAN_USUA1"": "" "", ""PLANTA"": "" "", ""SUBESTACIO"": ""Hector Flores"", ""SUBESTACI1"": ""Hector Flores"", ""SUBESTACI"": "" "", ""KV"": 69, ""SUBES"": ""Hector Flores"", ""X1"": 0, ""Y1"": 0, ""Tipo"": ""Transporte""}"
Subestaciones V8,Montecristo,69,14.55487982368092,-90.40262460721385,,,,,"{""FID"": 52, ""OBJECTID"": 47, ""NAME"": ""Montecristo"", ""SSEE"": "" "", ""KML_FOLDER"": ""Subestaciones_Centro_Sur"", ""GRAN_USUAR"": ""Transporte"", ""X"": 779891.42518, ""Y"": 1610690, ""GRAN_USUA1"": "" "", ""PLANTA"": "" "", ""SUBESTACIO"": ""Montecristo"", ""SUBESTACI1"": ""Montecristo"", ""SUBESTACI"": "" "", ""KV"": 69, ""SUBES"": ""Montecristo"", ""X1"": 0, ""Y1"": 0, ""Tipo"": ""Transporte""}"
Subestaciones V8,Incienso,69,14.64873251394469,-90.53045264437172,,,,,"{""FID"": 53, ""OBJECTID"": 48, ""NAME"": ""Incienso"", ""SSEE"": "" "", ""KML_FOLDER"": ""Subestaciones_Centro_Sur"", ""GRAN_USUAR"": ""Transporte"", ""X"": 765996.14, ""Y"": 1620930, ""GRAN_USUA1"": "" "", ""PLANTA"": "" "", ""SUBESTACIO"": ""Incienso"", ""SUBESTACI1"": ""Incienso"", ""SUBESTACI"": "" "", ""KV"": 69, ""SUBES"": ""Incienso"", ""X1"": 0, ""Y1"": 0, ""Tipo"": ""Transporte""}"
Subestaciones V8,Guatemala Sur,69,14.546279782353366,-90.58664503574101,,,,,"{""FID"": 54, ""OBJECTID"": 49, ""NAME"": ""Guatemala Sur"", ""SSEE"": "" "", ""KML_FOLDER"": ""Subestaciones_Centro_Sur"", ""GRAN_USUAR"": ""Transporte"", ""X"": 760060.92081, ""Y"": 1609520, ""GRAN_USUA1"": "" "", ""PLANTA"": "" "", ""SUBESTACIO"": ""Guatemala Sur"", ""SUBESTACI1"": ""Guatemala Sur"", ""SUBESTACI"": "" "", ""KV"": 69, ""SUBES"": ""Guatemala Sur"", ""X1"": 0, ""Y1"": 0, ""Tipo"": ""Transporte""}"
Subestaciones V8,Zapote,69,14.655856284762711,-90.51481260256945,,,,,"{""FID"": 55, ""OBJECTID"": 50, ""NAME"": ""Zapote"", ""SSEE"": "" "", ""KML_FOLDER"": ""Subestaciones_Centro_Sur"", ""GRAN_USUAR"": ""Transporte"", ""X"": 767673, ""Y"": 1621730000000, ""GRAN_USUA1"": "" "", ""PLANTA"": "" "", ""SUBESTACIO"": ""Zapote"", ""SUBESTACI1"": ""Zapote"", ""SUBESTACI"": "" "", ""KV"": 69, ""SUBES"": ""Zapote"", ""X1"": 0, ""Y1"": 0, ""Tipo"": ""Transporte""}"
Subestaciones V8,Norte,69,14.66414117328745,-90.50290342979683,,,,,"{""FID"": 56, ""OBJECTID"": 51, ""NAME"": ""Norte"", ""SSEE"": "" "", ""KML_FOLDER"": ""Subestaciones_Centro_Sur"", ""GRAN_USUAR"": ""Transporte"", ""X"": 768946.2922, ""Y"": 1622660, ""GRAN_USUA1"": "" "", ""PLANTA"": "" "", ""SUBESTACIO"": ""Norte"", ""SUBESTACI1"": ""Norte"", ""SUBESTACI"": "" "", ""KV"": 69, ""SUBES"": ""Norte"", ""X1"": 0, ""Y1"": 0, ""Tipo"": ""Transporte""}"
Subestaciones V8,Minerva,69,14.673573016436862,-90.54662329598266,,,,,"{""FID"": 57, ""OBJECTID"": 52, ""NAME"": ""Minerva"", ""SSEE"": "" "", ""KML_FOLDER"": ""Subestaciones_Centro_Sur"", ""GRAN_USUAR"": ""Transporte"", ""X"": 764223.6395, ""Y"": 1623660, ""GRAN_USUA1"": "" "", ""PLANTA"": "" "", ""SUBESTACIO"": ""Minerva"", ""SUBESTACI1"": ""Minerva"", ""SUBESTACI"": "" "", ""KV"": 69, ""SUBES"": ""Minerva"", ""X1"": 0, ""Y1"": 0, ""Tipo"": ""Transporte""}"
Subestaciones V8,San Juan de Dios,69,14.64061905679043,-90.52163839489853,,,,,"{""FID"": 58, ""OBJECTID"": 53, ""NAME"": ""San Juan de Dios"", ""SSEE"": "" "", ""KML_FOLDER"": ""Subestaciones_Centro_Sur"", ""GRAN_USUAR"": ""Transporte"", ""X"": 766955.87172, ""Y"": 1620040, ""GRAN_USUA1"": "" "", ""PLANTA"": "" "", ""SUBESTACIO"": ""San Juan de Dios"", ""SUBESTACI1"": ""San Juan de Dios"", ""SUBESTACI"": "" "", ""KV"": 69, ""SUBES"": ""San Juan de Dios"", ""X1"": 0, ""Y1"": 0, ""Tipo"": ""Transporte""}"
Subestaciones V8,Arrazola,69,14.489037803985534,-90.48347123865577,,,,,"{""FID"": 59, ""OBJECTID"": 54, ""NAME"": ""Arrazola"", ""SSEE"": "" "", ""KML_FOLDER"": ""Subestaciones_Centro_Sur"", ""GRAN_USUAR"": ""Transporte"", ""X"": 771254.78, ""Y"": 1603300, ""GRAN_USUA1"": "" "", ""PLANTA"": "" "", ""SUBESTACIO"": ""Arrazola"", ""SUBESTACI1"": ""Arrazola"", ""SUBESTACI"": "" "", ""KV"": 69, ""SUBES"": ""Arrazola"", ""X1"": 0, ""Y1"": 0, ""Tipo"": ""Transporte""}"
Subestaciones V8,Aurora,69,14.59408177972789,-90.54026566542589,,,,,"{""FID"": 60, ""OBJECTID"": 55, ""NAME"": ""Aurora"", ""SSEE"": "" "", ""KML_FOLDER"": ""Subestaciones_Centro_Sur"", ""GRAN_USUAR"": ""Transporte"", ""X"": 765004.20331, ""Y"": 1614860, ""GRAN_USUA1"": "" "", ""PLANTA"": "" "", ""SUBESTACIO"": ""Aurora"", ""SUBESTACI1"": ""Aurora"", ""SUBESTACI"": "" "", ""KV"": 69, ""SUBES"": ""Aurora"", ""X1"": 0, ""Y1"": 0, ""Tipo"": ""Transporte""}"
Subestaciones V8,Monte Maria,69,14.580694157429422,-90.56692509412632,,,,,"{""FID"": 61, ""OBJECTID"": 56, ""NAME"": ""Monte Maria"", ""SSEE"": "" "", ""KML_FOLDER"": ""Subestaciones_Centro_Sur"", ""GRAN_USUAR"": ""Transporte"", ""X"": 762146.33769, ""Y"": 1613350, ""GRAN_USUA1"": "" "", ""PLANTA"": "" "", ""SUBESTACIO"": ""Monte Maria"", ""SUBESTACI1"": ""Monte Maria"", ""SUBESTACI"": "" "", ""KV"": 69, ""SUBES"": ""Monte Maria"", ""X1"": 0, ""Y1"": 0, ""Tipo"": ""Transporte""}"
Subestaciones V8,Villa Lobos,69,14.562049679734058,-90.56969314797317,,,,,"{""FID"": 62, ""OBJECTID"": 57, ""NAME"": ""Villa Lobos"", ""SSEE"": "" "", ""KML_FOLDER"": ""Subestaciones_Centro_Sur"", ""GRAN_USUAR"": ""Transporte"", ""X"": 761869.97948, ""Y"": 1611280, ""GRAN_USUA1"": "" "", ""PLANTA"": "" "", ""SUBESTACIO"": ""Villa Lobos"", ""SUBESTACI1"": ""Villa Lobos"", ""SUBESTACI"": "" "", ""KV"": 69, ""SUBES"": ""Villa Lobos"", ""X1"": 0, ""Y1"": 0, ""Tipo"": ""Transporte""}"
Subestaciones V8,Petapa,69,14.563615982452099,-90.55311861683606,,,,,"{""FID"": 63, ""OBJECTID"": 58, ""NAME"": ""Petapa"", ""SSEE"": "" "", ""KML_FOLDER"": ""Subestaciones_Centro_Sur"", ""GRAN_USUAR"": ""Transporte"", ""X"": 763655.02913, ""Y"": 1611480, ""GRAN_USUA1"": "" "", ""PLANTA"": "" "", ""SUBESTACIO"": ""Petapa"", ""SUBESTACI1"": ""Petapa"", ""SUBESTACI"": "" "", ""KV"": 69, ""SUBES"": ""Petapa"", ""X1"": 0, ""Y1"": 0, ""Tipo"": ""Transporte""}"
Subestaciones V8,Ciudad Vieja,69,14.607135695891651,-90.5109807453826,,,,,"{""FID"": 64, ""OBJECTID"": 59, ""NAME"": ""Ciudad Vieja"", ""SSEE"": "" "", ""KML_FOLDER"": ""Subestaciones_Centro_Sur"", ""GRAN_USUAR"": ""Transporte"", ""X"": 768145.16385, ""Y"": 1616340, ""GRAN_USUA1"": "" "", ""PLANTA"": "" "", ""SUBESTACIO"": ""Ciudad Vieja"", ""SUBESTACI1"": ""Ciudad Vieja"", ""SUBESTACI"": "" "", ""KV"": 69, ""SUBES"": ""Ciudad Vieja"", ""X1"": 0, ""Y1"": 0, ""Tipo"": ""Transporte""}"
Subestaciones V8,Proceres,69,14.590799989757663,-90.50704591916309,,,,,"{""FID"": 65, ""OBJECTID"": 60, ""NAME"": ""Proceres"", ""SSEE"": "" "", ""KML_FOLDER"": ""Subestaciones_Centro_Sur"", ""GRAN_USUAR"": ""Transporte"", ""X"": 768589.14505, ""Y"": 1614540, ""GRAN_USUA1"": "" "", ""PLANTA"": "" "", ""SUBESTACIO"": ""Proceres"", ""SUBESTACI1"": ""Proceres"", ""SUBESTACI"": "" "", ""KV"": 69, ""SUBES"": ""Proceres"", ""X1"": 0, ""Y1"": 0, ""Tipo"": ""Transporte""}"
Subestaciones V8,Guadalupe,69,14.57852766810379,-90.51016538404114,,,,,"{""FID"": 66, ""OBJECTID"": 61, ""NAME"": ""Guadalupe"", ""SSEE"": "" "", ""KML_FOLDER"": ""Subestaciones_Centro_Sur"", ""GRAN_USUAR"": ""Transporte"", ""X"": 768267.74535, ""Y"": 1613180, ""GRAN_USUA1"": "" "", ""PLANTA"": "" "", ""SUBESTACIO"": ""Guadalupe"", ""SUBESTACI1"": ""Guadalupe"", ""SUBESTACI"": "" "", ""KV"": 69, ""SUBES"": ""Guadalupe"", ""X1"": 0, ""Y1"": 0, ""Tipo"": ""Transporte""}"
Subestaciones V8,Cambray,69,14.576194867371061,-90.49102974766426,,,,,"{""FID"": 67, ""OBJECTID"": 62, ""NAME"": ""Cambray"", ""SSEE"": "" "", ""KML_FOLDER"": ""Subestaciones_Centro_Sur"", ""GRAN_USUAR"": ""Transporte"", ""X"": 770333.51589, ""Y"": 1612940, ""GRAN_USUA1"": "" "", ""PLANTA"": "" "", ""SUBESTACIO"": ""Cambray"", ""SUBESTACI1"": ""Cambray"", ""SUBESTACI"": "" "", ""KV"": 69, ""SUBES"": ""Cambray"", ""X1"": 0, ""Y1"": 0, ""Tipo"": ""Transporte""}"
Subestaciones V8,San Miguel Petapa,69,14.512177289197833,-90.55789523618448,,,,,"{""FID"": 68, ""OBJECTID"": 63, ""NAME"": ""San Miguel Petapa"", ""SSEE"": "" "", ""KML_FOLDER"": ""Subestaciones_Centro_Sur"", ""GRAN_USUAR"": ""Transporte"", ""X"": 763200.99459, ""Y"": 1605780, ""GRAN_USUA1"": "" "", ""PLANTA"": "" "", ""SUBESTACIO"": ""San Miguel Petapa"", ""SUBESTACI1"": ""San Miguel Petapa"", ""SUBESTACI"": "" "", ""KV"": 69, ""SUBES"": ""San Miguel Petapa"", ""X1"": 0, ""Y1"": 0, ""Tipo"": ""Transporte""}"
Subestaciones V8,Sitio,69,14.631997713726674,-90.51992343414472,,,,,"{""FID"": 69, ""OBJECTID"": 64, ""NAME"": ""Sitio"", ""SSEE"": "" "", ""KML_FOLDER"": ""Subestaciones_Centro_Sur"", ""GRAN_USUAR"": ""Transporte"", ""X"": 766471.357, ""Y"": 1619080, ""GRAN_USUA1"": "" "", ""PLANTA"": "" "", ""SUBESTACIO"": ""Sitio"", ""SUBESTACI1"": ""Sitio"", ""SUBESTACI"": "" "", ""KV"": 69, ""SUBES"": ""Sitio"", ""X1"": 0, ""Y1"": 0, ""Tipo"": ""Transporte""}"
Subestaciones V8,Guarda,69,14.610215870364582,-90.5393288583818,,,,,"{""FID"": 70, ""OBJECTID"": 65, ""NAME"": ""Guarda"", ""SSEE"": "" "", ""KML_FOLDER"": ""Subestaciones_Centro_Sur"", ""GRAN_USUAR"": ""Transporte"", ""X"": 765085.83811, ""Y"": 1616650, ""GRAN_USUA1"": "" "", ""PLANTA"": "" "", ""SUBESTACIO"": ""Guarda"", ""SUBESTACI1"": ""Guarda"", ""SUBESTACI"": "" "", ""KV"": 69, ""SUBES"": ""Guarda"", ""X1"": 0, ""Y1"": 0, ""Tipo"": ""Transporte""}"
Subestaciones V8,Gerona,69,14.633824282129156,-90.50588096735562,,,,,"{""FID"": 71, ""OBJECTID"": 66, ""NAME"": ""Gerona"", ""SSEE"": "" "", ""KML_FOLDER"": ""Subestaciones_Centro_Sur"", ""GRAN_USUAR"": ""Transporte"", ""X"": 768662.3912, ""Y"": 1619300, ""GRAN_USUA1"": "" "", ""PLANTA"": "" "", ""SUBESTACIO"": ""Gerona"", ""SUBESTACI1"": ""Gerona"", ""SUBESTACI"": "" "", ""KV"": 69, ""SUBES"": ""Gerona"", ""X1"": 0, ""Y1"": 0, ""Tipo"": ""Transporte""}"
Subestaciones V8,Carlos Dorion,69,14.64477150893847,-90.48256680260036,,,,,"{""FID"": 72, ""OBJECTID"": 67, ""NAME"": ""Carlos Dorion"", ""SSEE"": "" "", ""KML_FOLDER"": ""Subestaciones_Centro_Sur"", ""GRAN_USUAR"": ""Transporte"", ""X"": 771161.69654, ""Y"": 1620540, ""GRAN_USUA1"": "" "", ""PLANTA"": "" "", ""SUBESTACIO"": ""Carlos Dorion"", ""SUBESTACI1"": ""Carlos Dorion"", ""SUBESTACI"": "" "", ""KV"": 69, ""SUBES"": ""Carlos Dorion"", ""X1"": 0, ""Y1"": 0, ""Tipo"": ""Transporte""}"
Subestaciones V8,Novella,69,14.667039633173516,-90.49790862263504,,,,,"{""FID"": 73, ""OBJECTID"": 68, ""NAME"": ""Novella"", ""SSEE"": "" "", ""KML_FOLDER"": ""Subestaciones_Centro_Sur"", ""GRAN_USUAR"": ""Transporte"", ""X"": 769481, ""Y"": 1622990000000, ""GRAN_USUA1"": "" "", ""PLANTA"": "" "", ""SUBESTACIO"": ""Novella"", ""SUBESTACI1"": ""Novella"", ""SUBESTACI"": "" "", ""KV"": 69, ""SUBES"": ""Novella"", ""X1"": 0, ""Y1"": 0, ""Tipo"": ""Transporte""}"
Subestaciones V8,Luis Nimatuj,69,14.686637968912867,-90.4909974666064,,,,,"{""FID"": 74, ""OBJECTID"": 69, ""NAME"": ""Luis Nimatuj"", ""SSEE"": "" "", ""KML_FOLDER"": ""Subestaciones_Centro_Sur"", ""GRAN_USUAR"": ""Transporte"", ""X"": 770201.67715, ""Y"": 1625170, ""GRAN_USUA1"": "" "", ""PLANTA"": "" "", ""SUBESTACIO"": ""Luis Nimatuj"", ""SUBESTACI1"": ""Luis Nimatuj"", ""SUBESTACI"": "" "", ""KV"": 69, ""SUBES"": ""Luis Nimatuj"", ""X1"": 0, ""Y1"": 0, ""Tipo"": ""Transporte""}"
Subestaciones V8,Augusto Palma,69,14.677965556753193,-90.46165717994008,,,,,"{""FID"": 75, ""OBJECTID"": 70, ""NAME"": ""Augusto Palma"", ""SSEE"": "" "", ""KML_FOLDER"": ""Subestaciones_Centro_Sur"", ""GRAN_USUAR"": ""Transporte"", ""X"": 773374, ""Y"": 1624240000000, ""GRAN_USUA1"": "" "", ""PLANTA"": "" "", ""SUBESTACIO"": ""Augusto Palma"", ""SUBESTACI1"": ""Augusto Palma"", ""SUBESTACI"": "" "", ""KV"": 69, ""SUBES"": ""Augusto Palma"", ""X1"": 0, ""Y1"": 0, ""Tipo"": ""Transporte""}"
Subestaciones V8,San Isidro,69,14.602225265590414,-90.46649911272175,,,,,"{""FID"": 76, ""OBJECTID"": 71, ""NAME"": ""San Isidro"", ""SSEE"": "" "", ""KML_FOLDER"": ""Subestaciones_Centro_Sur"", ""GRAN_USUAR"": ""Transporte"", ""X"": 772946, ""Y"": 1615850000000, ""GRAN_USUA1"": "" "", ""PLANTA"": "" "", ""SUBESTACIO"": ""San Isidro"", ""SUBESTACI1"": ""San Isidro"", ""SUBESTACI"": "" "", ""KV"": 69, ""SUBES"": ""San Isidro"", ""X1"": 0, ""Y1"": 0, ""Tipo"": ""Transporte""}"
Subestaciones V8,Montserrat,69,14.654245447855834,-90.56923604877291,,,,,"{""FID"": 77, ""OBJECTID"": 72, ""NAME"": ""Montserrat"", ""SSEE"": "" "", ""KML_FOLDER"": ""Subestaciones_Centro_Sur"", ""GRAN_USUAR"": ""Transporte"", ""X"": 761810, ""Y"": 1621490000000, ""GRAN_USUA1"": "" "", ""PLANTA"": "" "", ""SUBESTACIO"": ""Montserrat"", ""SUBESTACI1"": ""Montserrat"", ""SUBESTACI"": "" "", ""KV"": 69, ""SUBES"": ""Montserrat"", ""X1"": 0, ""Y1"": 0, ""Tipo"": ""Transporte""}"
Subestaciones V8,Ciudad Quetzal,69,14.694820533151574,-90.57027278630673,,,,,"{""FID"": 78, ""OBJECTID"": 73, ""NAME"": ""Ciudad Quetzal"", ""SSEE"": "" "", ""KML_FOLDER"": ""Subestaciones_Centro_Sur"", ""GRAN_USUAR"": ""Transporte"", ""X"": 761650, ""Y"": 1625980000000, ""GRAN_USUA1"": "" "", ""PLANTA"": "" "", ""SUBESTACIO"": ""Ciudad Quetzal"", ""SUBESTACI1"": ""Ciudad Quetzal"", ""SUBESTACI"": "" "", ""KV"": 69, ""SUBES"": ""Ciudad Quetzal"", ""X1"": 0, ""Y1"": 0, ""Tipo"": ""Transporte""}"
Subestaciones V8,San Juan Sacatepequez,69,14.724399965239432,-90.64170361080993,,,,,"{""FID"": 79, ""OBJECTID"": 74, ""NAME"": ""San Juan Sacatepequez"", ""SSEE"": "" "", ""KML_FOLDER"": ""Subestaciones_Centro_Sur"", ""GRAN_USUAR"": ""Transporte"", ""X"": 753919.74243, ""Y"": 1629170, ""GRAN_USUA1"": "" "", ""PLANTA"": "" "", ""SUBESTACIO"": ""San Juan Sacatepequez"", ""SUBESTACI1"": ""San Juan Sacatepequez"", ""SUBESTACI"": "" "", ""KV"": 69, ""SUBES"": ""San Juan Sacatepequez"", ""X1"": 0, ""Y1"": 0, ""Tipo"": ""Transporte""}"
Subestaciones V8,Castellana,69,14.618022422836969,-90.52368735787287,,,,,"{""FID"": 80, ""OBJECTID"": 75, ""NAME"": ""Castellana"", ""SSEE"": "" "", ""KML_FOLDER"": ""Subestaciones_Centro_Sur"", ""GRAN_USUAR"": ""Transporte"", ""X"": 766762.36878, ""Y"": 1617530, ""GRAN_USUA1"": "" "", ""PLANTA"": "" "", ""SUBESTACIO"": ""Castellana"", ""SUBESTACI1"": ""Castellana"", ""SUBESTACI"": "" "", ""KV"": 69, ""SUBES"": ""Castellana"", ""X1"": 0, ""Y1"": 0, ""Tipo"": ""Transporte""}"
Subestaciones V8,Hincapie,69,14.56583278919273,-90.5282367796325,,,,,"{""FID"": 81, ""OBJECTID"": 76, ""NAME"": ""Hincapie"", ""SSEE"": "" "", ""KML_FOLDER"": ""Subestaciones_Centro_Sur"", ""GRAN_USUAR"": ""Transporte"", ""X"": 766334.83942, ""Y"": 1611750, ""GRAN_USUA1"": "" "", ""PLANTA"": "" "", ""SUBESTACIO"": ""Hincapie"", ""SUBESTACI1"": ""Hincapie"", ""SUBESTACI"": "" "", ""KV"": 69, ""SUBES"": ""Hincapie"", ""X1"": 0, ""Y1"": 0, ""Tipo"": ""Transporte""}"
Subestaciones V8,Roosevelt,69,14.636112046013963,-90.57159125253368,,,,,"{""FID"": 82, ""OBJECTID"": 77, ""NAME"": ""Roosevelt"", ""SSEE"": "" "", ""KML_FOLDER"": ""Subestaciones_Centro_Sur"", ""GRAN_USUAR"": ""Transporte"", ""X"": 761577.71729, ""Y"": 1619480, ""GRAN_USUA1"": "" "", ""PLANTA"": "" "", ""SUBESTACIO"": ""Roosevelt"", ""SUBESTACI1"": ""Roosevelt"", ""SUBESTACI"": "" "", ""KV"": 69, ""SUBES"": ""Roosevelt"", ""X1"": 0, ""Y1"": 0, ""Tipo"": ""Transporte""}"
Subestaciones V8,Kaminal,69,14.627092513577951,-90.562695216902,,,,,"{""FID"": 83, ""OBJECTID"": 78, ""NAME"": ""Kaminal"", ""SSEE"": "" "", ""KML_FOLDER"": ""Subestaciones_Centro_Sur"", ""GRAN_USUAR"": ""Transporte"", ""X"": 763298.52891, ""Y"": 1618110, ""GRAN_USUA1"": "" "", ""PLANTA"": "" "", ""SUBESTACIO"": ""Kaminal"", ""SUBESTACI1"": ""Kaminal"", ""SUBESTACI"": "" "", ""KV"": 69, ""SUBES"": ""Kaminal"", ""X1"": 0, ""Y1"": 0, ""Tipo"": ""Transporte""}"
Subestaciones V8,Guatemala Sur,69,14.546279782353366,-90.58664503574101,,,,,"{""FID"": 84, ""OBJECTID"": 79, ""NAME"": ""Guatemala Sur"", ""SSEE"": "" "", ""KML_FOLDER"": ""Subestaciones_Existentes_Sur"", ""GRAN_USUAR"": ""Transporte"", ""X"": 760060.92081, ""Y"": 1609520, ""GRAN_USUA1"": "" "", ""PLANTA"": "" "", ""SUBESTACIO"": ""Guatemala Sur"", ""SUBESTACI1"": ""Guatemala Sur"", ""SUBESTACI"": "" "", ""KV"": 69, ""SUBES"": ""Guatemala Sur"", ""X1"": 0, ""Y1"": 0, ""Tipo"": ""Transporte""}"
Subestaciones V8,Amatitlan,69,14.486086446874062,-90.61522668701913,,,,,"{""FID"": 85, ""OBJECTID"": 80, ""NAME"": ""Amatitlan"", ""SSEE"": "" "", ""KML_FOLDER"": ""Subestaciones_Existentes_Sur"", ""GRAN_USUAR"": ""Transporte"", ""X"": 757048.97, ""Y"": 1602820, ""GRAN_USUA1"": "" "", ""PLANTA"": "" "", ""SUBESTACIO"": ""Amatitlan"", ""SUBESTACI1"": ""Amatitlan"", ""SUBESTACI"": "" "", ""KV"": 69, ""SUBES"": ""Amatitlan"", ""X1"": 0, ""Y1"": 0, ""Tipo"": ""Transporte""}"
Subestaciones V8,Chacara,69,14.560177370010297,-90.71173064768826,,,,,"{""FID"": 86, ""OBJECTID"": 81, ""NAME"": ""Chacara"", ""SSEE"": "" "", ""KML_FOLDER"": ""Subestaciones_Existentes_Sur"", ""GRAN_USUAR"": ""Transporte"", ""X"": 746559.92, ""Y"": 1610920, ""GRAN_USUA1"": "" "", ""PLANTA"": "" "", ""SUBESTACIO"": ""Chacara"", ""SUBESTACI1"": ""Chacara"", ""SUBESTACI"": "" "", ""KV"": 69, ""SUBES"": ""Chacara"", ""X1"": 0, ""Y1"": 0, ""Tipo"": ""Transporte""}"
Subestaciones V8,Antigua,69,14.554018429004712,-90.72739820964055,,,,,"{""FID"": 87, ""OBJECTID"": 82, ""NAME"": ""Antigua"", ""SSEE"": "" "", ""KML_FOLDER"": ""Subestaciones_Existentes_Sur"", ""GRAN_USUAR"": ""Transporte"", ""X"": 744877.77, ""Y"": 1610220, ""GRAN_USUA1"": "" "", ""PLANTA"": "" "", ""SUBESTACIO"": ""Antigua"", ""SUBESTACI1"": ""Antigua"", ""SUBESTACI"": "" "", ""KV"": 69, ""SUBES"": ""Antigua"", ""X1"": 0, ""Y1"": 0, ""Tipo"": ""Transporte""}"
Subestaciones V8,Centro,69,14.600507326009147,-90.56576898282096,,,,,"{""FID"": 88, ""OBJECTID"": 83, ""NAME"": ""Centro"", ""SSEE"": "" "", ""KML_FOLDER"": ""Subestaciones_Existentes_Sur"", ""GRAN_USUAR"": ""Transporte"", ""X"": 762247.48, ""Y"": 1615550, ""GRAN_USUA1"": "" "", ""PLANTA"": "" "", ""SUBESTACIO"": ""Centro"", ""SUBESTACI1"": ""Centro"", ""SUBESTACI"": "" "", ""KV"": 69, ""SUBES"": ""Centro"", ""X1"": 0, ""Y1"": 0, ""Tipo"": ""Transporte""}"
Subestaciones V8,San Lucas,69,14.601356860636189,-90.65772623322717,,,,,"{""FID"": 89, ""OBJECTID"": 84, ""NAME"": ""San Lucas"", ""SSEE"": "" "", ""KML_FOLDER"": ""Subestaciones_Existentes_Sur"", ""GRAN_USUAR"": ""Transporte"", ""X"": 752334.74, ""Y"": 1615540, ""GRAN_USUA1"": "" "", ""PLANTA"": "" "", ""SUBESTACIO"": ""San Lucas"", ""SUBESTACI1"": ""San Lucas"", ""SUBESTACI"": "" "", ""KV"": 69, ""SUBES"": ""San Lucas"", ""X1"": 0, ""Y1"": 0, ""Tipo"": ""Transporte""}"
Subestaciones V8,Laguna,69,14.462040101559834,-90.5815174838713,,,,,"{""FID"": 90, ""OBJECTID"": 85, ""NAME"": ""Laguna"", ""SSEE"": "" "", ""KML_FOLDER"": ""Subestaciones_Existentes_Sur"", ""GRAN_USUAR"": ""Transporte"", ""X"": 760712.38, ""Y"": 1600200, ""GRAN_USUA1"": "" "", ""PLANTA"": "" "", ""SUBESTACIO"": ""Laguna"", ""SUBESTACI1"": ""Laguna"", ""SUBESTACI"": "" "", ""KV"": 69, ""SUBES"": ""Laguna"", ""X1"": 0, ""Y1"": 0, ""Tipo"": ""Transporte""}"
Subestaciones V8,Palin,69,14.392220342111601,-90.71177194946418,,,,,"{""FID"": 91, ""OBJECTID"": 86, ""NAME"": ""Palin"", ""SSEE"": "" "", ""KML_FOLDER"": ""Subestaciones_Existentes_Sur"", ""GRAN_USUAR"": ""Transporte"", ""X"": 746741.15, ""Y"": 1592330, ""GRAN_USUA1"": "" "", ""PLANTA"": "" "", ""SUBESTACIO"": ""Palin"", ""SUBESTACI1"": ""Palin"", ""SUBESTACI"": "" "", ""KV"": 69, ""SUBES"": ""Palin"", ""X1"": 0, ""Y1"": 0, ""Tipo"": ""Transporte""}"
Subestaciones V8,El Sauce,69,14.436991221309919,-90.65095049403224,,,,,"{""FID"": 92, ""OBJECTID"": 87, ""NAME"": ""El Sauce"", ""SSEE"": "" "", ""KML_FOLDER"": ""Subestaciones_Existentes_Sur"", ""GRAN_USUAR"": ""Transporte"", ""X"": 753252.149, ""Y"": 1597350, ""GRAN_USUA1"": "" "", ""PLANTA"": "" "", ""SUBESTACIO"": ""El Sauce"", ""SUBESTACI1"": ""El Sauce"", ""SUBESTACI"": "" "", ""KV"": 69, ""SUBES"": ""El Sauce"", ""X1"": 0, ""Y1"": 0, ""Tipo"": ""Transporte""}"
Subestaciones V8,San Gaspar,69,14.533217123799195,-90.7295704337212,,,,,"{""FID"": 93, ""OBJECTID"": 88, ""NAME"": ""San Gaspar"", ""SSEE"": "" "", ""KML_FOLDER"": ""Subestaciones_Existentes_Sur"", ""GRAN_USUAR"": ""Transporte"", ""X"": 744666.52222, ""Y"": 1607920, ""GRAN_USUA1"": "" "", ""PLANTA"": "" "", ""SUBESTACIO"": ""San Gaspar"", ""SUBESTACI1"": ""San Gaspar"", ""SUBESTACI"": "" "", ""KV"": 69, ""SUBES"": ""San Gaspar"", ""X1"": 0, ""Y1"": 0, ""Tipo"": ""Transporte""}"
Subestaciones V8,San Cristobal,69,14.596419489141494,-90.58555551093184,,,,,"{""FID"": 94, ""OBJECTID"": 89, ""NAME"": ""San Cristobal"", ""SSEE"": "" "", ""KML_FOLDER"": ""Subestaciones_Existentes_Sur"", ""GRAN_USUAR"": ""Transporte"", ""X"": 760119.51421, ""Y"": 1615070, ""GRAN_USUA1"": "" "", ""PLANTA"": "" "", ""SUBESTACIO"": ""San Cristobal"", ""SUBESTACI1"": ""San Cristobal"", ""SUBESTACI"": "" "", ""KV"": 69, ""SUBES"": ""San Cristobal"", ""X1"": 0, ""Y1"": 0, ""Tipo"": ""Transporte""}"
Subestaciones V8,Papi Strachan,69,14.600683082332358,-90.56187770346632,,,,,"{""FID"": 95, ""OBJECTID"": 90, ""NAME"": ""Papi Strachan"", ""SSEE"": "" "", ""KML_FOLDER"": ""Subestaciones_Existentes_Sur"", ""GRAN_USUAR"": ""Transporte"", ""X"": 762666.71231, ""Y"": 1615570, ""GRAN_USUA1"": "" "", ""PLANTA"": "" "", ""SUBESTACIO"": ""Papi Strachan"", ""SUBESTACI1"": ""Papi Strachan"", ""SUBESTACI"": "" "", ""KV"": 69, ""SUBES"": ""Papi Strachan"", ""X1"": 0, ""Y1"": 0, ""Tipo"": ""Transporte""}"
Subestaciones V8,Barcenas,69,14.536902809023548,-90.59791753691609,,,,,"{""FID"": 96, ""OBJECTID"": 91, ""NAME"": ""Barcenas"", ""SSEE"": "" "", ""KML_FOLDER"": ""Subestaciones_Existentes_Sur"", ""GRAN_USUAR"": ""Transporte"", ""X"": 758856.51356, ""Y"": 1608470, ""GRAN_USUA1"": "" "", ""PLANTA"": "" "", ""SUBESTACIO"": ""Barcenas"", ""SUBESTACI1"": ""Barcenas"", ""SUBESTACI"": "" "", ""KV"": 69, ""SUBES"": ""Barcenas"", ""X1"": 0, ""Y1"": 0, ""Tipo"": ""Transporte""}"
Subestaciones V8,Villa Nueva,69,14.528190342114982,-90.59416363000483,,,,,"{""FID"": 97, ""OBJECTID"": 92, ""NAME"": ""Villa Nueva"", ""SSEE"": "" "", ""KML_FOLDER"": ""Subestaciones_Existentes_Sur"", ""GRAN_USUAR"": ""Transporte"", ""X"": 759271.42227, ""Y"": 1607510, ""GRAN_USUA1"": "" "", ""PLANTA"": "" "", ""SUBESTACIO"": ""Villa Nueva"", ""SUBESTACI1"": ""Villa Nueva"", ""SUBESTACI"": "" "", ""KV"": 69, ""SUBES"": ""Villa Nueva"", ""X1"": 0, ""Y1"": 0, ""Tipo"": ""Transporte""}"
Subestaciones V8,Mayan Golf,69,14.501682814517508,-90.58329058826821,,,,,"{""FID"": 98, ""OBJECTID"": 93, ""NAME"": ""Mayan Golf"", ""SSEE"": "" "", ""KML_FOLDER"": ""Subestaciones_Existentes_Sur"", ""GRAN_USUAR"": ""Transporte"", ""X"": 760474.82823, ""Y"": 1604590, ""GRAN_USUA1"": "" "", ""PLANTA"": "" "", ""SUBESTACIO"": ""Mayan Golf"", ""SUBESTACI1"": ""Mayan Golf"", ""SUBESTACI"": "" "", ""KV"": 69, ""SUBES"": ""Mayan Golf"", ""X1"": 0, ""Y1"": 0, ""Tipo"": ""Transporte""}"
Subestaciones V8,Mixco,69,14.628646791834107,-90.6009465525928,,,,,"{""FID"": 99, ""OBJECTID"": 94, ""NAME"": ""Mixco"", ""SSEE"": "" "", ""KML_FOLDER"": ""Subestaciones_Existentes_Sur"", ""GRAN_USUAR"": ""Transporte"", ""X"": 758422.81087, ""Y"": 1618620, ""GRAN_USUA1"": "" "", ""PLANTA"": "" "", ""SUBESTACIO"": ""Mixco"", ""SUBESTACI1"": ""Mixco"", ""SUBESTACI"": "" "", ""KV"": 69, ""SUBES"": ""Mixco"", ""X1"": 0, ""Y1"": 0, ""Tipo"": ""Transporte""}"
Subestaciones V8,Las Flores,69,14.657727149092672,-90.60613218941607,,,,,"{""FID"": 100, ""OBJECTID"": 95, ""NAME"": ""Las Flores"", ""SSEE"": "" "", ""KML_FOLDER"": ""Subestaciones_Existentes_Sur"", ""GRAN_USUAR"": ""Transporte"", ""X"": 757829.91905, ""Y"": 1621830, ""GRAN_USUA1"": "" "", ""PLANTA"": "" "", ""SUBESTACIO"": ""Las Flores"", ""SUBESTACI1"": ""Las Flores"", ""SUBESTACI"": "" "", ""KV"": 69, ""SUBES"": ""Las Flores"", ""X1"": 0, ""Y1"": 0, ""Tipo"": ""Transporte""}"
Subestaciones V8,Tinco,69,14.638530081877446,-90.60051343171916,,,,,"{""FID"": 101, ""OBJECTID"": 96, ""NAME"": ""Tinco"", ""SSEE"": "" "", ""KML_FOLDER"": ""Subestaciones_Existentes_Sur"", ""GRAN_USUAR"": ""Transporte"", ""X"": 758457.90895, ""Y"": 1619710, ""GRAN_USUA1"": "" "", ""PLANTA"": "" "", ""SUBESTACIO"": ""Tinco"", ""SUBESTACI1"": ""Tinco"", ""SUBESTACI"": "" "", ""KV"": 69, ""SUBES"": ""Tinco"", ""X1"": 0, ""Y1"": 0, ""Tipo"": ""Transporte""}"
Subestaciones V8,Pantaleon,69,14.3341235402105,-90.99613646265763,,,,,"{""FID"": 102, ""OBJECTID"": 97, ""NAME"": ""Pantaleon"", ""SSEE"": "" "", ""KML_FOLDER"": ""Subestaciones_Existentes_Costa_Sur"", ""GRAN_USUAR"": ""Transporte"", ""X"": 716122, ""Y"": 1585610000000, ""GRAN_USUA1"": "" "", ""PLANTA"": "" "", ""SUBESTACIO"": ""Pantaleon"", ""SUBESTACI1"": ""Pantaleon"", ""SUBESTACI"": "" "", ""KV"": 69, ""SUBES"": ""Pantaleon"", ""X1"": 0, ""Y1"": 0, ""Tipo"": ""Generador""}"
Subestaciones V8,Magdalena,69,14.122891733851512,-90.92864191315834,,,,,"{""FID"": 103, ""OBJECTID"": 98, ""NAME"": ""Magdalena"", ""SSEE"": "" "", ""KML_FOLDER"": ""Subestaciones_Existentes_Costa_Sur"", ""GRAN_USUAR"": ""Transporte"", ""X"": 723612, ""Y"": 1562300, ""GRAN_USUA1"": "" "", ""PLANTA"": "" "", ""SUBESTACIO"": ""Magdalena"", ""SUBESTACI1"": ""Magdalena"", ""SUBESTACI"": "" "", ""KV"": 69, ""SUBES"": ""Magdalena"", ""X1"": 0, ""Y1"": 0, ""Tipo"": ""Generador""}"
Subestaciones V8,La Union,69,14.267017716749855,-91.09783347272419,,,,,"{""FID"": 104, ""OBJECTID"": 99, ""NAME"": ""La Union"", ""SSEE"": "" "", ""KML_FOLDER"": ""Subestaciones_Existentes_Costa_Sur"", ""GRAN_USUAR"": ""Transporte"", ""X"": 705211, ""Y"": 1578100, ""GRAN_USUA1"": "" "", ""PLANTA"": "" "", ""SUBESTACIO"": ""La Union"", ""SUBESTACI1"": ""La Union"", ""SUBESTACI"": "" "", ""KV"": 69, ""SUBES"": ""La Union"", ""X1"": 0, ""Y1"": 0, ""Tipo"": ""Generador""}"
Subestaciones V8,Palin,69,14.392220342111601,-90.71177194946418,,,,,"{""FID"": 105, ""OBJECTID"": 100, ""NAME"": ""Palin"", ""SSEE"": "" "", ""KML_FOLDER"": ""Subestaciones_Existentes_Costa_Sur"", ""GRAN_USUAR"": ""Transporte"", ""X"": 746741.15, ""Y"": 1592330, ""GRAN_USUA1"": "" "", ""PLANTA"": "" "", ""SUBESTACIO"": ""Palin"", ""SUBESTACI1"": ""Palin"", ""SUBESTACI"": "" "", ""KV"": 69, ""SUBES"": ""Palin"", ""X1"": 0, ""Y1"": 0, ""Tipo"": ""Transporte""}"
Subestaciones V8,Obispo,69,14.250777034611048,-90.96066493014716,,,,,"{""FID"": 106, ""OBJECTID"": 101, ""NAME"": ""Obispo"", ""SSEE"": "" "", ""KML_FOLDER"": ""Subestaciones_Existentes_Costa_Sur"", ""GRAN_USUAR"": ""Transporte"", ""X"": 720030.18, ""Y"": 1576430, ""GRAN_USUA1"": "" "", ""PLANTA"": "" "", ""SUBESTACIO"": ""Obispo"", ""SUBESTACI1"": ""Obispo"", ""SUBESTACI"": "" "", ""KV"": 69, ""SUBES"": ""Obispo"", ""X1"": 0, ""Y1"": 0, ""Tipo"": ""Transporte""}"
Subestaciones V8,Escuintla,69,14.26474732488129,-90.79847503911809,,,,,"{""FID"": 107, ""OBJECTID"": 102, ""NAME"": ""Escuintla"", ""SSEE"": "" "", ""KML_FOLDER"": ""Subestaciones_Existentes_Costa_Sur"", ""GRAN_USUAR"": ""Transporte"", ""X"": 737522, ""Y"": 1578130000000, ""GRAN_USUA1"": "" "", ""PLANTA"": "" "", ""SUBESTACIO"": ""Escuintla"", ""SUBESTACI1"": ""Escuintla"", ""SUBESTACI"": "" "", ""KV"": 69, ""SUBES"": ""Escuintla"", ""X1"": 0, ""Y1"": 0, ""Tipo"": ""Transporte""}"
Subestaciones V8,Santa Lucia Cotz.,69,14.328828697568511,-90.99112575554793,,,,,"{""FID"": 108, ""OBJECTID"": 103, ""NAME"": ""Santa Lucia Cotz."", ""SSEE"": "" "", ""KML_FOLDER"": ""Subestaciones_Existentes_Costa_Sur"", ""GRAN_USUAR"": ""Transporte"", ""X"": 716690.77, ""Y"": 1585030, ""GRAN_USUA1"": "" "", ""PLANTA"": "" "", ""SUBESTACIO"": ""Santa Lucia Cotz."", ""SUBESTACI1"": ""Santa Lucia Cotz."", ""SUBESTACI"": "" "", ""KV"": 69, ""SUBES"": ""Santa Lucia Cotz."", ""X1"": 0, ""Y1"": 0, ""Tipo"": ""Transporte""}"
Subestaciones V8,Acacias,69,14.043170584361919,-91.11564828278335,,,,,"{""FID"": 109, ""OBJECTID"": 104, ""NAME"": ""Acacias"", ""SSEE"": "" "", ""KML_FOLDER"": ""Subestaciones_Existentes_Costa_Sur"", ""GRAN_USUAR"": ""Transporte"", ""X"": 703510.42361, ""Y"": 1553310, ""GRAN_USUA1"": "" "", ""PLANTA"": "" "", ""SUBESTACIO"": ""Acacias"", ""SUBESTACI1"": ""Acacias"", ""SUBESTACI"": "" "", ""KV"": 69, ""SUBES"": ""Acacias"", ""X1"": 0, ""Y1"": 0, ""Tipo"": ""Transporte""}"
Subestaciones V8,Duke,69,13.930712090627999,-90.79733857661778,,,,,"{""FID"": 110, ""OBJECTID"": 105, ""NAME"": ""Duke"", ""SSEE"": "" "", ""KML_FOLDER"": ""Subestaciones_Existentes_Costa_Sur"", ""GRAN_USUAR"": ""Transporte"", ""X"": 737991, ""Y"": 1541170000000, ""GRAN_USUA1"": "" "", ""PLANTA"": "" "", ""SUBESTACIO"": ""Duke"", ""SUBESTACI1"": ""Duke"", ""SUBESTACI"": "" "", ""KV"": 69, ""SUBES"": ""Duke"", ""X1"": 0, ""Y1"": 0, ""Tipo"": ""Generador""}"
Subestaciones V8,Palmeras,69,14.311383981647552,-90.79358824469146,,,,,"{""FID"": 111, ""OBJECTID"": 106, ""NAME"": ""Palmeras"", ""SSEE"": "" "", ""KML_FOLDER"": ""Subestaciones_Existentes_Costa_Sur"", ""GRAN_USUAR"": ""Transporte"", ""X"": 738000.38649, ""Y"": 1583300, ""GRAN_USUA1"": "" "", ""PLANTA"": "" "", ""SUBESTACIO"": ""Palmeras"", ""SUBESTACI1"": ""Palmeras"", ""SUBESTACI"": "" "", ""KV"": 69, ""SUBES"": ""Palmeras"", ""X1"": 0, ""Y1"": 0, ""Tipo"": ""Transporte""}"
Subestaciones V8,Concepcion,69,14.329908906116739,-90.7882025118989,,,,,"{""FID"": 112, ""OBJECTID"": 107, ""NAME"": ""Concepcion"", ""SSEE"": "" "", ""KML_FOLDER"": ""Subestaciones_Existentes_Costa_Sur"", ""GRAN_USUAR"": ""Transporte"", ""X"": 738562, ""Y"": 1585350000000, ""GRAN_USUA1"": "" "", ""PLANTA"": "" "", ""SUBESTACIO"": ""Concepcion"", ""SUBESTACI1"": ""Concepcion"", ""SUBESTACI"": "" "", ""KV"": 69, ""SUBES"": ""Concepcion"", ""X1"": 0, ""Y1"": 0, ""Tipo"": ""Generador""}"
Subestaciones V8,Trinidad,69,14.149846329012885,-90.83924721480729,,,,,"{""FID"": 113, ""OBJECTID"": 108, ""NAME"": ""Trinidad"", ""SSEE"": "" "", ""KML_FOLDER"": ""Subestaciones_Existentes_Costa_Sur"", ""GRAN_USUAR"": ""Transporte"", ""X"": 733239, ""Y"": 1565370000000, ""GRAN_USUA1"": "" "", ""PLANTA"": "" "", ""SUBESTACIO"": ""Trinidad"", ""SUBESTACI1"": ""Trinidad"", ""SUBESTACI"": "" "", ""KV"": 69, ""SUBES"": ""Trinidad"", ""X1"": 0, ""Y1"": 0, ""Tipo"": ""Generador""}"
Subestaciones V8,Puerto San Jose,69,13.929939784330534,-90.81895676337872,,,,,"{""FID"": 114, ""OBJECTID"": 109, ""NAME"": ""Puerto San Jose"", ""SSEE"": "" "", ""KML_FOLDER"": ""Sub_Ampliada_Costa_Sur"", ""GRAN_USUAR"": ""Transporte"", ""X"": 735655.03958, ""Y"": 1541060, ""GRAN_USUA1"": "" "", ""PLANTA"": "" "", ""SUBESTACIO"": ""Puerto San Jose"", ""SUBESTACI1"": ""Puerto San Jose"", ""SUBESTACI"": "" "", ""KV"": 69, ""SUBES"": ""Puerto San Jose"", ""X1"": 0, ""Y1"": 0, ""Tipo"": ""Transporte""}"
Subestaciones V8,Santa Maria Marquez,69,14.314795052433585,-90.77703794218506,,,,,"{""FID"": 115, ""OBJECTID"": 110, ""NAME"": ""Santa Maria Marquez"", ""SSEE"": "" "", ""KML_FOLDER"": ""Sub_Ampliada_Costa_Sur"", ""GRAN_USUAR"": ""Transporte"", ""X"": 739782.78941, ""Y"": 1583690, ""GRAN_USUA1"": "" "", ""PLANTA"": "" "", ""SUBESTACIO"": ""Santa Maria Marquez"", ""SUBESTACI1"": ""Santa Maria Marquez"", ""SUBESTACI"": "" "", ""KV"": 69, ""SUBES"": ""Santa Maria Marquez"", ""X1"": 0, ""Y1"": 0, ""Tipo"": ""Transporte""}"
Subestaciones V8,Portuaria,69,13.931958178860546,-90.78429180617974,,,,,"{""FID"": 116, ""OBJECTID"": 111, ""NAME"": ""Portuaria"", ""SSEE"": "" "", ""KML_FOLDER"": ""Sub_Ampliada_Costa_Sur"", ""GRAN_USUAR"": ""Transporte"", ""X"": 739400, ""Y"": 1541320000000, ""GRAN_USUA1"": "" "", ""PLANTA"": "" "", ""SUBESTACIO"": ""Portuaria"", ""SUBESTACI1"": ""Portuaria"", ""SUBESTACI"": "" "", ""KV"": 69, ""SUBES"": ""Portuaria"", ""X1"": 0, ""Y1"": 0, ""Tipo"": ""Transporte""}"
Subestaciones V8,Guate-Este,69,14.538560646686197,-90.47119363391965,,,,,"{""FID"": 117, ""OBJECTID"": 113, ""NAME"": ""Guate-Este"", ""SSEE"": "" "", ""KML_FOLDER"": ""Sub_Ampliada_Centro_Sur"", ""GRAN_USUAR"": ""Transporte"", ""X"": 772518.25, ""Y"": 1608800, ""GRAN_USUA1"": "" "", ""PLANTA"": "" "", ""SUBESTACIO"": ""Guate-Este"", ""SUBESTACI1"": ""Guate-Este"", ""SUBESTACI"": "" "", ""KV"": 69, ""SUBES"": ""Guate-Este"", ""X1"": 0, ""Y1"": 0, ""Tipo"": ""Transporte""}"
Subestaciones V8,Guate-Norte,69,14.669770682163673,-90.45408232966076,,,,,"{""FID"": 118, ""OBJECTID"": 114, ""NAME"": ""Guate-Norte"", ""SSEE"": "" "", ""KML_FOLDER"": ""Sub_Ampliada_Centro_Sur"", ""GRAN_USUAR"": ""Transporte"", ""X"": 774227.15062, ""Y"": 1623310, ""GRAN_USUA1"": "" "", ""PLANTA"": "" "", ""SUBESTACIO"": ""Guate-Norte"", ""SUBESTACI1"": ""Guate-Norte"", ""SUBESTACI"": "" "", ""KV"": 69, ""SUBES"": ""Guate-Norte"", ""X1"": 0, ""Y1"": 0, ""Tipo"": ""Transporte""}"
Subestaciones V8,Sector Industrial,69,14.563541580619917,-90.55291537270027,,,,,"{""FID"": 119, ""OBJECTID"": 115, ""NAME"": ""Sector Industrial"", ""SSEE"": "" "", ""KML_FOLDER"": ""Subestaciones_centro"", ""GRAN_USUAR"": ""Transporte"", ""X"": 764398.13471, ""Y"": 1611280, ""GRAN_USUA1"": "" "", ""PLANTA"": "" "", ""SUBESTACIO"": ""Sector Industrial"", ""SUBESTACI1"": ""Sector Industrial"", ""SUBESTACI"": "" "", ""KV"": 69, ""SUBES"": ""Sector Industrial"", ""X1"": 0, ""Y1"": 0, ""Tipo"": ""Transporte""}"
Subestaciones V8,El Naranjo,69,14.649278282119678,-90.54028620824874,,,,,"{""FID"": 120, ""OBJECTID"": 116, ""NAME"": ""El Naranjo"", ""SSEE"": "" "", ""KML_FOLDER"": ""Subestaciones_centro"", ""GRAN_USUAR"": ""Transporte"", ""X"": 764935.73576, ""Y"": 1620970, ""GRAN_USUA1"": "" "", ""PLANTA"": "" "", ""SUBESTACIO"": ""El Naranjo"", ""SUBESTACI1"": ""El Naranjo"", ""SUBESTACI"": "" "", ""KV"": 69, ""SUBES"": ""El Naranjo"", ""X1"": 0, ""Y1"": 0, ""Tipo"": ""Transporte""}"
Subestaciones V8,Santa Monica,69,14.542472885668008,-90.6058697473323,,,,,"{""FID"": 121, ""OBJECTID"": 117, ""NAME"": ""Santa Monica"", ""SSEE"": "" "", ""KML_FOLDER"": ""Subestaciones_Sur"", ""GRAN_USUAR"": ""Transporte"", ""X"": 757992.64756, ""Y"": 1609080, ""GRAN_USUA1"": "" "", ""PLANTA"": "" "", ""SUBESTACIO"": ""Santa Monica"", ""SUBESTACI1"": ""Santa Monica"", ""SUBESTACI"": "" "", ""KV"": 69, ""SUBES"": ""Santa Monica"", ""X1"": 0, ""Y1"": 0, ""Tipo"": ""Transporte""}"
Subestaciones V8,Los Lirios,69,14.205848127775718,-90.84176408551924,,,,,"{""FID"": 122, ""OBJECTID"": 118, ""NAME"": ""Los Lirios"", ""SSEE"": "" "", ""KML_FOLDER"": ""Subestaciones_Costa_Sur"", ""GRAN_USUAR"": ""Transporte"", ""X"": 732878.10041, ""Y"": 1571670, ""GRAN_USUA1"": "" "", ""PLANTA"": "" "", ""SUBESTACIO"": ""Los Lirios"", ""SUBESTACI1"": ""Los Lirios"", ""SUBESTACI"": "" "", ""KV"": 69, ""SUBES"": ""Los Lirios"", ""X1"": 0, ""Y1"": 0, ""Tipo"": ""Transporte""}"
Subestaciones V8,El Milagro,69,14.149815645239997,-90.97034047139046,,,,,"{""FID"": 123, ""OBJECTID"": 119, ""NAME"": ""El Milagro"", ""SSEE"": "" "", ""KML_FOLDER"": ""Subestaciones_Costa_Sur"", ""GRAN_USUAR"": ""Transporte"", ""X"": 719149.54058, ""Y"": 1565300, ""GRAN_USUA1"": "" "", ""PLANTA"": "" "", ""SUBESTACIO"": ""El Milagro"", ""SUBESTACI1"": ""El Milagro"", ""SUBESTACI"": "" "", ""KV"": 69, ""SUBES"": ""El Milagro"", ""X1"": 0, ""Y1"": 0, ""Tipo"": ""Transporte""}"
Subestaciones V8,Santa Ana,69,14.235494477996427,-90.84362263457172,,,,,"{""FID"": 124, ""OBJECTID"": 120, ""NAME"": ""Santa Ana"", ""SSEE"": "" "", ""KML_FOLDER"": ""Subestaciones_Costa_Sur"", ""GRAN_USUAR"": ""Transporte"", ""X"": 732715.68506, ""Y"": 1575050, ""GRAN_USUA1"": "" "", ""PLANTA"": "" "", ""SUBESTACIO"": ""Santa Ana"", ""SUBESTACI1"": ""Santa Ana"", ""SUBESTACI"": "" "", ""KV"": 69, ""SUBES"": ""Santa Ana"", ""X1"": 0, ""Y1"": 0, ""Tipo"": ""Generador""}"
Subestaciones V8,Miriam,69,14.309615576146074,-91.04715962364399,,,,,"{""FID"": 125, ""OBJECTID"": 121, ""NAME"": ""Miriam"", ""SSEE"": "" "", ""KML_FOLDER"": ""Subestaciones_Costa_Sur"", ""GRAN_USUAR"": ""Transporte"", ""X"": 713340.66867, ""Y"": 1583930, ""GRAN_USUA1"": "" "", ""PLANTA"": "" "", ""SUBESTACIO"": ""Miriam"", ""SUBESTACI1"": ""Miriam"", ""SUBESTACI"": "" "", ""KV"": 69, ""SUBES"": ""Miriam"", ""X1"": 0, ""Y1"": 0, ""Tipo"": ""Transporte""}"
Subestaciones V8,Iztapa,69,13.94002608557706,-90.71477456110667,,,,,"{""FID"": 126, ""OBJECTID"": 122, ""NAME"": ""Iztapa"", ""SSEE"": "" "", ""KML_FOLDER"": ""Subestaciones_Costa_Sur"", ""GRAN_USUAR"": ""Transporte"", ""X"": 746906.33845, ""Y"": 1542280, ""GRAN_USUA1"": "" "", ""PLANTA"": "" "", ""SUBESTACIO"": ""Iztapa"", ""SUBESTACI1"": ""Iztapa"", ""SUBESTACI"": "" "", ""KV"": 69, ""SUBES"": ""Iztapa"", ""X1"": 0, ""Y1"": 0, ""Tipo"": ""Transporte""}"
Subestaciones V8,Santa María Cauque,69,14.65853702635584,-90.70707362976815,,,,,"{""FID"": 127, ""OBJECTID"": 123, ""NAME"": ""Santa María Cauque"", ""SSEE"": "" "", ""KML_FOLDER"": "" "", ""GRAN_USUAR"": ""Transporte"", ""X"": 0, ""Y"": 0, ""GRAN_USUA1"": "" "", ""PLANTA"": "" "", ""SUBESTACIO"": ""Santa María Cauque"", ""SUBESTACI1"": ""Santa María Cauque"", ""SUBESTACI"": "" "", ""KV"": 69, ""SUBES"": ""Santa María Cauque"", ""X1"": 0, ""Y1"": 0, ""Tipo"": ""Transporte""}"
Subestaciones V8,AGUACAPA,230,14.190747774042672,-90.60415207050097,,,,,"{""FID"": 128, ""OBJECTID"": 1, ""NAME"": "" "", ""SSEE"": "" "", ""KML_FOLDER"": "" "", ""GRAN_USUAR"": ""Transporte"", ""X"": 758582, ""Y"": 1570147.99995, ""GRAN_USUA1"": "" "", ""PLANTA"": "" "", ""SUBESTACIO"": "" "", ""SUBESTACI1"": "" "", ""SUBESTACI"": ""AGUACAPA"", ""KV"": 230, ""SUBES"": ""AGUACAPA"", ""X1"": 0, ""Y1"": 0, ""Tipo"": ""Generador""}"
Subestaciones V8,ALASKA,69,14.846174670686114,-91.36299518391098,,,,,"{""FID"": 129, ""OBJECTID"": 2, ""NAME"": "" "", ""SSEE"": "" "", ""KML_FOLDER"": "" "", ""GRAN_USUAR"": ""Transporte"", ""X"": 676137, ""Y"": 1641956.99995, ""GRAN_USUA1"": "" "", ""PLANTA"": "" "", ""SUBESTACIO"": "" "", ""SUBESTACI1"": "" "", ""SUBESTACI"": ""ALASKA"", ""KV"": 69, ""SUBES"": ""ALASKA"", ""X1"": 0, ""Y1"": 0, ""Tipo"": ""Transporte""}"
Subestaciones V8,LOS BRILLANTES,230,14.576836855702568,-91.62397523049276,,,,,"{""FID"": 130, ""OBJECTID"": 3, ""NAME"": "" "", ""SSEE"": "" "", ""KML_FOLDER"": "" "", ""GRAN_USUAR"": ""Transporte"", ""X"": 648233, ""Y"": 1611970.99995, ""GRAN_USUA1"": "" "", ""PLANTA"": "" "", ""SUBESTACIO"": "" "", ""SUBESTACI1"": "" "", ""SUBESTACI"": ""LOS BRILLANTES"", ""KV"": 230, ""SUBES"": ""LOS BRILLANTES"", ""X1"": 0, ""Y1"": 0, ""Tipo"": ""Transporte""}"
Subestaciones V8,CENTRO 2 Y 3 69 KV,69,14.600582523680014,-90.56589321313672,,,,,"{""FID"": 131, ""OBJECTID"": 5, ""NAME"": "" "", ""SSEE"": "" "", ""KML_FOLDER"": "" "", ""GRAN_USUAR"": ""Transporte"", ""X"": 762234, ""Y"": 1615553.99995, ""GRAN_USUA1"": "" "", ""PLANTA"": "" "", ""SUBESTACIO"": "" "", ""SUBESTACI1"": "" "", ""SUBESTACI"": ""CENTRO 2 Y 3 69 KV"", ""KV"": 69, ""SUBES"": ""CENTRO 2 Y 3 69 KV"", ""X1"": 0, ""Y1"": 0, ""Tipo"": ""Transporte""}"
Subestaciones V8,CENTRO 69 KV  EEGSA,69,14.600501514034255,-90.56592193647361,,,,,"{""FID"": 132, ""OBJECTID"": 6, ""NAME"": "" "", ""SSEE"": "" "", ""KML_FOLDER"": "" "", ""GRAN_USUAR"": ""Transporte"", ""X"": 762231, ""Y"": 1615544.99995, ""GRAN_USUA1"": "" "", ""PLANTA"": "" "", ""SUBESTACIO"": "" "", ""SUBESTACI1"": "" "", ""SUBESTACI"": ""CENTRO 69 KV  EEGSA"", ""KV"": 69, ""SUBES"": ""CENTRO 69 KV  EEGSA"", ""X1"": 0, ""Y1"": 0, ""Tipo"": ""Transporte""}"
Subestaciones V8,CHAMPERICO,69,14.309124777740651,-91.89946620931491,,,,,"{""FID"": 133, ""OBJECTID"": 7, ""NAME"": "" "", ""SSEE"": "" "", ""KML_FOLDER"": "" "", ""GRAN_USUAR"": ""Transporte"", ""X"": 618694, ""Y"": 1582195.99995, ""GRAN_USUA1"": "" "", ""PLANTA"": "" "", ""SUBESTACIO"": "" "", ""SUBESTACI1"": "" "", ""SUBESTACI"": ""CHAMPERICO"", ""KV"": 69, ""SUBES"": ""CHAMPERICO"", ""X1"": 0, ""Y1"": 0, ""Tipo"": ""Transporte""}"
Subestaciones V8,CHIMALTENANGO,69,14.659146912737375,-90.80774636935756,,,,,"{""FID"": 134, ""OBJECTID"": 8, ""NAME"": "" "", ""SSEE"": "" "", ""KML_FOLDER"": "" "", ""GRAN_USUAR"": ""Transporte"", ""X"": 736104, ""Y"": 1621769.99995, ""GRAN_USUA1"": "" "", ""PLANTA"": "" "", ""SUBESTACIO"": "" "", ""SUBESTACI1"": "" "", ""SUBESTACI"": ""CHIMALTENANGO"", ""KV"": 69, ""SUBES"": ""CHIMALTENANGO"", ""X1"": 0, ""Y1"": 0, ""Tipo"": ""Transporte""}"
Subestaciones V8,CHIQUIMULILLA,138,14.059935063157955,-90.36598523114081,,,,,"{""FID"": 135, ""OBJECTID"": 9, ""NAME"": "" "", ""SSEE"": "" "", ""KML_FOLDER"": "" "", ""GRAN_USUAR"": ""Transporte"", ""X"": 784465, ""Y"": 1555943.99995, ""GRAN_USUA1"": "" "", ""PLANTA"": "" "", ""SUBESTACIO"": "" "", ""SUBESTACI1"": "" "", ""SUBESTACI"": ""CHIQUIMULILLA"", ""KV"": 138, ""SUBES"": ""CHIQUIMULILLA"", ""X1"": 0, ""Y1"": 0, ""Tipo"": ""Transporte""}"
Subestaciones V8,CHISEC,69,15.816889869793282,-90.29361152948728,,,,,"{""FID"": 136, ""OBJECTID"": 10, ""NAME"": "" "", ""SSEE"": "" "", ""KML_FOLDER"": "" "", ""GRAN_USUAR"": ""Transporte"", ""X"": 789916.000001, ""Y"": 1750547.99995, ""GRAN_USUA1"": "" "", ""PLANTA"": "" "", ""SUBESTACIO"": "" "", ""SUBESTACI1"": "" "", ""SUBESTACI"": ""CHISEC"", ""KV"": 69, ""SUBES"": ""CHISEC"", ""X1"": 0, ""Y1"": 0, ""Tipo"": ""Transporte""}"
Subestaciones V8,COATEPEQUE,69,14.703043325218445,-91.90012864142894,,,,,"{""FID"": 137, ""OBJECTID"": 11, ""NAME"": "" "", ""SSEE"": "" "", ""KML_FOLDER"": "" "", ""GRAN_USUAR"": ""Transporte"", ""X"": 618413, ""Y"": 1625769.99995, ""GRAN_USUA1"": "" "", ""PLANTA"": "" "", ""SUBESTACIO"": "" "", ""SUBESTACI1"": "" "", ""SUBESTACI"": ""COATEPEQUE"", ""KV"": 69, ""SUBES"": ""COATEPEQUE"", ""X1"": 0, ""Y1"": 0, ""Tipo"": ""Transporte""}"
